tram=[
{"type":"Feature","geometry":{"type":"Point","coordinates":[3.14544857506543,50.6641344306393]},"properties":{"OBJECTID":3,"INSEE":"009","COMMUNE":"Villeneuve d'Ascq","NOM_STATIO":"PLANCHE EPINOY","URL":"http://www.transpole.fr/fr/metro_tram/lignes-tram.aspx","LIBELLE":"Planche Epinoy","URL_MEL":"http://www.lillemetropole.fr/mel/institution/competences/transports-mobilite/transports-en-commun.html"}}
,{"type":"Feature","geometry":{"type":"Point","coordinates":[3.15439929938047,50.6690971205295]},"properties":{"OBJECTID":5,"INSEE":"163","COMMUNE":"Croix","NOM_STATIO":"VILLA CAVROIS","URL":"http://www.transpole.fr/fr/metro_tram/lignes-tram.aspx","LIBELLE":"Villa Cavrois","URL_MEL":"http://www.lillemetropole.fr/mel/institution/competences/transports-mobilite/transports-en-commun.html"}}
,{"type":"Feature","geometry":{"type":"Point","coordinates":[3.1533563723274,50.6686149459341]},"properties":{"OBJECTID":6,"INSEE":"163","COMMUNE":"Croix","NOM_STATIO":"VILLA CAVROIS","URL":"http://www.transpole.fr/fr/metro_tram/lignes-tram.aspx","LIBELLE":"Villa Cavrois","URL_MEL":"http://www.lillemetropole.fr/mel/institution/competences/transports-mobilite/transports-en-commun.html"}}
,{"type":"Feature","geometry":{"type":"Point","coordinates":[3.1490488914197,50.6661760164439]},"properties":{"OBJECTID":8,"INSEE":"163","COMMUNE":"Croix","NOM_STATIO":"LA MARQUE","URL":"http://www.transpole.fr/fr/metro_tram/lignes-tram.aspx","LIBELLE":"La Marque","URL_MEL":"http://www.lillemetropole.fr/mel/institution/competences/transports-mobilite/transports-en-commun.html"}}
,{"type":"Feature","geometry":{"type":"Point","coordinates":[3.07377159535943,50.6401843638998]},"properties":{"OBJECTID":10,"INSEE":"350","COMMUNE":"Lille","NOM_STATIO":"GARE LILLE EUROPE","URL":"http://www.transpole.fr/fr/metro_tram/lignes-tram.aspx","LIBELLE":"Gare Lille Europe","URL_MEL":"http://www.lillemetropole.fr/mel/institution/competences/transports-mobilite/transports-en-commun.html"}}
,{"type":"Feature","geometry":{"type":"Point","coordinates":[3.07920263185432,50.6492757523072]},"properties":{"OBJECTID":13,"INSEE":"368","COMMUNE":"La Madeleine","NOM_STATIO":"BOTANIQUE","URL":"http://www.transpole.fr/fr/metro_tram/lignes-tram.aspx","LIBELLE":"Botanique","URL_MEL":"http://www.lillemetropole.fr/mel/institution/competences/transports-mobilite/transports-en-commun.html"}}
,{"type":"Feature","geometry":{"type":"Point","coordinates":[3.07501855117139,50.6454421213261]},"properties":{"OBJECTID":15,"INSEE":"368","COMMUNE":"La Madeleine","NOM_STATIO":"ROMARIN","URL":"http://www.transpole.fr/fr/metro_tram/lignes-tram.aspx","LIBELLE":"Romarin","URL_MEL":"http://www.lillemetropole.fr/mel/institution/competences/transports-mobilite/transports-en-commun.html"}}
,{"type":"Feature","geometry":{"type":"Point","coordinates":[3.1106798125538,50.6648270823465]},"properties":{"OBJECTID":17,"INSEE":"378","COMMUNE":"Marcq en Baroeul","NOM_STATIO":"ACACIAS","URL":"http://www.transpole.fr/fr/metro_tram/lignes-tram.aspx","LIBELLE":"Acacias","URL_MEL":"http://www.lillemetropole.fr/mel/institution/competences/transports-mobilite/transports-en-commun.html"}}
,{"type":"Feature","geometry":{"type":"Point","coordinates":[3.09376403464789,50.6601501784927]},"properties":{"OBJECTID":19,"INSEE":"378","COMMUNE":"Marcq en Baroeul","NOM_STATIO":"BROSSOLETTE","URL":"http://www.transpole.fr/fr/metro_tram/lignes-tram.aspx","LIBELLE":"Brossolette","URL_MEL":"http://www.lillemetropole.fr/mel/institution/competences/transports-mobilite/transports-en-commun.html"}}
,{"type":"Feature","geometry":{"type":"Point","coordinates":[3.08911538820103,50.6568258946787]},"properties":{"OBJECTID":21,"INSEE":"378","COMMUNE":"Marcq en Baroeul","NOM_STATIO":"BUISSON","URL":"http://www.transpole.fr/fr/metro_tram/lignes-tram.aspx","LIBELLE":"Buisson","URL_MEL":"http://www.lillemetropole.fr/mel/institution/competences/transports-mobilite/transports-en-commun.html"}}
,{"type":"Feature","geometry":{"type":"Point","coordinates":[3.11145978639847,50.677239826375]},"properties":{"OBJECTID":22,"INSEE":"378","COMMUNE":"Marcq en Baroeul","NOM_STATIO":"CERISAIE CENTRE D'AFF","URL":"http://www.transpole.fr/fr/metro_tram/lignes-tram.aspx","LIBELLE":"Cerisaie Centre D'Affaires","URL_MEL":"http://www.lillemetropole.fr/mel/institution/competences/transports-mobilite/transports-en-commun.html"}}
,{"type":"Feature","geometry":{"type":"Point","coordinates":[3.11440623488443,50.6797004987772]},"properties":{"OBJECTID":25,"INSEE":"378","COMMUNE":"Marcq en Baroeul","NOM_STATIO":"CHÂTEAU ROUGE","URL":"http://www.transpole.fr/fr/metro_tram/lignes-tram.aspx","LIBELLE":"Château Rouge","URL_MEL":"http://www.lillemetropole.fr/mel/institution/competences/transports-mobilite/transports-en-commun.html"}}
,{"type":"Feature","geometry":{"type":"Point","coordinates":[3.10271439072106,50.6649381796535]},"properties":{"OBJECTID":27,"INSEE":"378","COMMUNE":"Marcq en Baroeul","NOM_STATIO":"CROISE LAROCHE","URL":"http://www.transpole.fr/fr/metro_tram/lignes-tram.aspx","LIBELLE":"Croise Laroche","URL_MEL":"http://www.lillemetropole.fr/mel/institution/competences/transports-mobilite/transports-en-commun.html"}}
,{"type":"Feature","geometry":{"type":"Point","coordinates":[3.10351186934892,50.6659701588726]},"properties":{"OBJECTID":29,"INSEE":"378","COMMUNE":"Marcq en Baroeul","NOM_STATIO":"FOCH","URL":"http://www.transpole.fr/fr/metro_tram/lignes-tram.aspx","LIBELLE":"Foch","URL_MEL":"http://www.lillemetropole.fr/mel/institution/competences/transports-mobilite/transports-en-commun.html"}}
,{"type":"Feature","geometry":{"type":"Point","coordinates":[3.10637361209989,50.6729298101986]},"properties":{"OBJECTID":30,"INSEE":"378","COMMUNE":"Marcq en Baroeul","NOM_STATIO":"LE QUESNE","URL":"http://www.transpole.fr/fr/metro_tram/lignes-tram.aspx","LIBELLE":"Le Quesne","URL_MEL":"http://www.lillemetropole.fr/mel/institution/competences/transports-mobilite/transports-en-commun.html"}}
,{"type":"Feature","geometry":{"type":"Point","coordinates":[3.14313820858579,50.7037616077678]},"properties":{"OBJECTID":32,"INSEE":"421","COMMUNE":"Mouvaux","NOM_STATIO":"FAIDHERBE","URL":"http://www.transpole.fr/fr/metro_tram/lignes-tram.aspx","LIBELLE":"Faidherbe","URL_MEL":"http://www.lillemetropole.fr/mel/institution/competences/transports-mobilite/transports-en-commun.html"}}
,{"type":"Feature","geometry":{"type":"Point","coordinates":[3.13149844853303,50.6927491899599]},"properties":{"OBJECTID":34,"INSEE":"421","COMMUNE":"Mouvaux","NOM_STATIO":"TRIEZ","URL":"http://www.transpole.fr/fr/metro_tram/lignes-tram.aspx","LIBELLE":"Triez","URL_MEL":"http://www.lillemetropole.fr/mel/institution/competences/transports-mobilite/transports-en-commun.html"}}
,{"type":"Feature","geometry":{"type":"Point","coordinates":[3.15647895685412,50.6726684711743]},"properties":{"OBJECTID":37,"INSEE":"512","COMMUNE":"Roubaix","NOM_STATIO":"BOL D'AIR","URL":"http://www.transpole.fr/fr/metro_tram/lignes-tram.aspx","LIBELLE":"Bol D'Air","URL_MEL":"http://www.lillemetropole.fr/mel/institution/competences/transports-mobilite/transports-en-commun.html"}}
,{"type":"Feature","geometry":{"type":"Point","coordinates":[3.16767444491834,50.6809914541486]},"properties":{"OBJECTID":39,"INSEE":"512","COMMUNE":"Roubaix","NOM_STATIO":"HOPITAL V. PROVO","URL":"http://www.transpole.fr/fr/metro_tram/lignes-tram.aspx","LIBELLE":"Hopital V. Provo","URL_MEL":"http://www.lillemetropole.fr/mel/institution/competences/transports-mobilite/transports-en-commun.html"}}
,{"type":"Feature","geometry":{"type":"Point","coordinates":[3.17220526985808,50.6850124260044]},"properties":{"OBJECTID":41,"INSEE":"512","COMMUNE":"Roubaix","NOM_STATIO":"JEAN MOULIN","URL":"http://www.transpole.fr/fr/metro_tram/lignes-tram.aspx","LIBELLE":"Jean Moulin","URL_MEL":"http://www.lillemetropole.fr/mel/institution/competences/transports-mobilite/transports-en-commun.html"}}
,{"type":"Feature","geometry":{"type":"Point","coordinates":[3.16226015877758,50.6780621217994]},"properties":{"OBJECTID":42,"INSEE":"512","COMMUNE":"Roubaix","NOM_STATIO":"PARC BARBIEUX","URL":"http://www.transpole.fr/fr/metro_tram/lignes-tram.aspx","LIBELLE":"Parc Barbieux","URL_MEL":"http://www.lillemetropole.fr/mel/institution/competences/transports-mobilite/transports-en-commun.html"}}
,{"type":"Feature","geometry":{"type":"Point","coordinates":[3.17517206305281,50.6872353174273]},"properties":{"OBJECTID":45,"INSEE":"512","COMMUNE":"Roubaix","NOM_STATIO":"ALFRED MONGY","URL":"http://www.transpole.fr/fr/metro_tram/lignes-tram.aspx","LIBELLE":"Alfred Mongy","URL_MEL":"http://www.lillemetropole.fr/mel/institution/competences/transports-mobilite/transports-en-commun.html"}}
,{"type":"Feature","geometry":{"type":"Point","coordinates":[3.15255425770346,50.7096191559238]},"properties":{"OBJECTID":47,"INSEE":"599","COMMUNE":"Tourcoing","NOM_STATIO":"MA CAMPAGNE","URL":"http://www.transpole.fr/fr/metro_tram/lignes-tram.aspx","LIBELLE":"Ma Campagne","URL_MEL":"http://www.lillemetropole.fr/mel/institution/competences/transports-mobilite/transports-en-commun.html"}}
,{"type":"Feature","geometry":{"type":"Point","coordinates":[3.15608279246592,50.7126339084159]},"properties":{"OBJECTID":49,"INSEE":"599","COMMUNE":"Tourcoing","NOM_STATIO":"PONT HYDRAULIQUE","URL":"http://www.transpole.fr/fr/metro_tram/lignes-tram.aspx","LIBELLE":"Pont Hydraulique","URL_MEL":"http://www.lillemetropole.fr/mel/institution/competences/transports-mobilite/transports-en-commun.html"}}
,{"type":"Feature","geometry":{"type":"Point","coordinates":[3.15712470447528,50.7177893129218]},"properties":{"OBJECTID":51,"INSEE":"599","COMMUNE":"Tourcoing","NOM_STATIO":"VICTOIRE","URL":"http://www.transpole.fr/fr/metro_tram/lignes-tram.aspx","LIBELLE":"Victoire","URL_MEL":"http://www.lillemetropole.fr/mel/institution/competences/transports-mobilite/transports-en-commun.html"}}
,{"type":"Feature","geometry":{"type":"Point","coordinates":[3.15700083248915,50.7178067247334]},"properties":{"OBJECTID":52,"INSEE":"599","COMMUNE":"Tourcoing","NOM_STATIO":"VICTOIRE","URL":"http://www.transpole.fr/fr/metro_tram/lignes-tram.aspx","LIBELLE":"Victoire","URL_MEL":"http://www.lillemetropole.fr/mel/institution/competences/transports-mobilite/transports-en-commun.html"}}
,{"type":"Feature","geometry":{"type":"Point","coordinates":[3.12439645779506,50.6872953879958]},"properties":{"OBJECTID":55,"INSEE":"646","COMMUNE":"Wasquehal","NOM_STATIO":"GRAND COTTIGNIES","URL":"http://www.transpole.fr/fr/metro_tram/lignes-tram.aspx","LIBELLE":"Grand Cottignies","URL_MEL":"http://www.lillemetropole.fr/mel/institution/competences/transports-mobilite/transports-en-commun.html"}}
,{"type":"Feature","geometry":{"type":"Point","coordinates":[3.12553396609969,50.6640515049868]},"properties":{"OBJECTID":57,"INSEE":"646","COMMUNE":"Wasquehal","NOM_STATIO":"LA TERRASSE","URL":"http://www.transpole.fr/fr/metro_tram/lignes-tram.aspx","LIBELLE":"La Terrasse","URL_MEL":"http://www.lillemetropole.fr/mel/institution/competences/transports-mobilite/transports-en-commun.html"}}
,{"type":"Feature","geometry":{"type":"Point","coordinates":[3.12961914906501,50.6638146262715]},"properties":{"OBJECTID":59,"INSEE":"646","COMMUNE":"Wasquehal","NOM_STATIO":"PAVE DE LILLE","URL":"http://www.transpole.fr/fr/metro_tram/lignes-tram.aspx","LIBELLE":"Pave De Lille","URL_MEL":"http://www.lillemetropole.fr/mel/institution/competences/transports-mobilite/transports-en-commun.html"}}
,{"type":"Feature","geometry":{"type":"Point","coordinates":[3.11850239601002,50.6643757253598]},"properties":{"OBJECTID":62,"INSEE":"646","COMMUNE":"Wasquehal","NOM_STATIO":"PONT DE WASQUEHAL","URL":"http://www.transpole.fr/fr/metro_tram/lignes-tram.aspx","LIBELLE":"Pont De Wasquehal","URL_MEL":"http://www.lillemetropole.fr/mel/institution/competences/transports-mobilite/transports-en-commun.html"}}
,{"type":"Feature","geometry":{"type":"Point","coordinates":[3.13908987253818,50.6993112975352]},"properties":{"OBJECTID":63,"INSEE":"421","COMMUNE":"Mouvaux","NOM_STATIO":"TROIS SUISSES","URL":"http://www.transpole.fr/fr/metro_tram/lignes-tram.aspx","LIBELLE":"Trois Suisses","URL_MEL":"http://www.lillemetropole.fr/mel/institution/competences/transports-mobilite/transports-en-commun.html"}}
,{"type":"Feature","geometry":{"type":"Point","coordinates":[3.15896099162655,50.72078416694]},"properties":{"OBJECTID":66,"INSEE":"599","COMMUNE":"Tourcoing","NOM_STATIO":"TOURCOING CENTRE","URL":"http://www.transpole.fr/fr/metro_tram/lignes-tram.aspx","LIBELLE":"Tourcoing Centre","URL_MEL":"http://www.lillemetropole.fr/mel/institution/competences/transports-mobilite/transports-en-commun.html"}}
,{"type":"Feature","geometry":{"type":"Point","coordinates":[3.10381198622402,50.6667130610366]},"properties":{"OBJECTID":65,"INSEE":"378","COMMUNE":"Marcq en Baroeul","NOM_STATIO":"FOCH","URL":"http://www.transpole.fr/fr/metro_tram/lignes-tram.aspx","LIBELLE":"Foch","URL_MEL":"http://www.lillemetropole.fr/mel/institution/competences/transports-mobilite/transports-en-commun.html"}}
,{"type":"Feature","geometry":{"type":"Point","coordinates":[3.13850557836273,50.6633349471579]},"properties":{"OBJECTID":1,"INSEE":"009","COMMUNE":"Villeneuve d'Ascq","NOM_STATIO":"LE SART","URL":"http://www.transpole.fr/fr/metro_tram/lignes-tram.aspx","LIBELLE":"Le Sart","URL_MEL":"http://www.lillemetropole.fr/mel/institution/competences/transports-mobilite/transports-en-commun.html"}}
,{"type":"Feature","geometry":{"type":"Point","coordinates":[3.07193823803712,50.637688195426]},"properties":{"OBJECTID":11,"INSEE":"350","COMMUNE":"Lille","NOM_STATIO":"GARE LILLE FLANDRES","URL":"http://www.transpole.fr/fr/metro_tram/lignes-tram.aspx","LIBELLE":"Gare Lille Flandres","URL_MEL":"http://www.lillemetropole.fr/mel/institution/competences/transports-mobilite/transports-en-commun.html"}}
,{"type":"Feature","geometry":{"type":"Point","coordinates":[3.11137282521503,50.6772914528467]},"properties":{"OBJECTID":23,"INSEE":"378","COMMUNE":"Marcq en Baroeul","NOM_STATIO":"CERISAIE CENTRE D'AFF","URL":"http://www.transpole.fr/fr/metro_tram/lignes-tram.aspx","LIBELLE":"Cerisaie Centre D'Affaires","URL_MEL":"http://www.lillemetropole.fr/mel/institution/competences/transports-mobilite/transports-en-commun.html"}}
,{"type":"Feature","geometry":{"type":"Point","coordinates":[3.13089765576764,50.692395496585]},"properties":{"OBJECTID":35,"INSEE":"421","COMMUNE":"Mouvaux","NOM_STATIO":"TRIEZ","URL":"http://www.transpole.fr/fr/metro_tram/lignes-tram.aspx","LIBELLE":"Triez","URL_MEL":"http://www.lillemetropole.fr/mel/institution/competences/transports-mobilite/transports-en-commun.html"}}
,{"type":"Feature","geometry":{"type":"Point","coordinates":[3.16158221455344,50.6775667954225]},"properties":{"OBJECTID":43,"INSEE":"512","COMMUNE":"Roubaix","NOM_STATIO":"PARC BARBIEUX","URL":"http://www.transpole.fr/fr/metro_tram/lignes-tram.aspx","LIBELLE":"Parc Barbieux","URL_MEL":"http://www.lillemetropole.fr/mel/institution/competences/transports-mobilite/transports-en-commun.html"}}
,{"type":"Feature","geometry":{"type":"Point","coordinates":[3.11954468688528,50.6835787098159]},"properties":{"OBJECTID":53,"INSEE":"646","COMMUNE":"Wasquehal","NOM_STATIO":"CARTELOT","URL":"http://www.transpole.fr/fr/metro_tram/lignes-tram.aspx","LIBELLE":"Cartelot","URL_MEL":"http://www.lillemetropole.fr/mel/institution/competences/transports-mobilite/transports-en-commun.html"}}
,{"type":"Feature","geometry":{"type":"Point","coordinates":[3.11616245729422,50.6645808326303]},"properties":{"OBJECTID":61,"INSEE":"646","COMMUNE":"Wasquehal","NOM_STATIO":"PONT DE WASQUEHAL","URL":"http://www.transpole.fr/fr/metro_tram/lignes-tram.aspx","LIBELLE":"Pont De Wasquehal","URL_MEL":"http://www.lillemetropole.fr/mel/institution/competences/transports-mobilite/transports-en-commun.html"}}
,{"type":"Feature","geometry":{"type":"Point","coordinates":[3.13947286898851,50.6632087923025]},"properties":{"OBJECTID":2,"INSEE":"009","COMMUNE":"Villeneuve d'Ascq","NOM_STATIO":"LE SART","URL":"http://www.transpole.fr/fr/metro_tram/lignes-tram.aspx","LIBELLE":"Le Sart","URL_MEL":"http://www.lillemetropole.fr/mel/institution/competences/transports-mobilite/transports-en-commun.html"}}
,{"type":"Feature","geometry":{"type":"Point","coordinates":[3.14630728851335,50.6645267742674]},"properties":{"OBJECTID":4,"INSEE":"009","COMMUNE":"Villeneuve d'Ascq","NOM_STATIO":"PLANCHE EPINOY","URL":"http://www.transpole.fr/fr/metro_tram/lignes-tram.aspx","LIBELLE":"Planche Epinoy","URL_MEL":"http://www.lillemetropole.fr/mel/institution/competences/transports-mobilite/transports-en-commun.html"}}
,{"type":"Feature","geometry":{"type":"Point","coordinates":[3.14990336493278,50.6665742457739]},"properties":{"OBJECTID":7,"INSEE":"163","COMMUNE":"Croix","NOM_STATIO":"LA MARQUE","URL":"http://www.transpole.fr/fr/metro_tram/lignes-tram.aspx","LIBELLE":"La Marque","URL_MEL":"http://www.lillemetropole.fr/mel/institution/competences/transports-mobilite/transports-en-commun.html"}}
,{"type":"Feature","geometry":{"type":"Point","coordinates":[3.08837403535827,50.6564204850267]},"properties":{"OBJECTID":9,"INSEE":"350","COMMUNE":"Lille","NOM_STATIO":"BUISSON","URL":"http://www.transpole.fr/fr/metro_tram/lignes-tram.aspx","LIBELLE":"Buisson","URL_MEL":"http://www.lillemetropole.fr/mel/institution/competences/transports-mobilite/transports-en-commun.html"}}
,{"type":"Feature","geometry":{"type":"Point","coordinates":[3.07859733717965,50.6488163089977]},"properties":{"OBJECTID":12,"INSEE":"368","COMMUNE":"La Madeleine","NOM_STATIO":"BOTANIQUE","URL":"http://www.transpole.fr/fr/metro_tram/lignes-tram.aspx","LIBELLE":"Botanique","URL_MEL":"http://www.lillemetropole.fr/mel/institution/competences/transports-mobilite/transports-en-commun.html"}}
,{"type":"Feature","geometry":{"type":"Point","coordinates":[3.07570526542026,50.645947715355]},"properties":{"OBJECTID":14,"INSEE":"368","COMMUNE":"La Madeleine","NOM_STATIO":"ROMARIN","URL":"http://www.transpole.fr/fr/metro_tram/lignes-tram.aspx","LIBELLE":"Romarin","URL_MEL":"http://www.lillemetropole.fr/mel/institution/competences/transports-mobilite/transports-en-commun.html"}}
,{"type":"Feature","geometry":{"type":"Point","coordinates":[3.08186732108864,50.6518386133442]},"properties":{"OBJECTID":16,"INSEE":"368","COMMUNE":"La Madeleine","NOM_STATIO":"SAINT-MAUR","URL":"http://www.transpole.fr/fr/metro_tram/lignes-tram.aspx","LIBELLE":"Saint-Maur","URL_MEL":"http://www.lillemetropole.fr/mel/institution/competences/transports-mobilite/transports-en-commun.html"}}
,{"type":"Feature","geometry":{"type":"Point","coordinates":[3.10955313231346,50.6649479681697]},"properties":{"OBJECTID":18,"INSEE":"378","COMMUNE":"Marcq en Baroeul","NOM_STATIO":"ACACIAS","URL":"http://www.transpole.fr/fr/metro_tram/lignes-tram.aspx","LIBELLE":"Acacias","URL_MEL":"http://www.lillemetropole.fr/mel/institution/competences/transports-mobilite/transports-en-commun.html"}}
,{"type":"Feature","geometry":{"type":"Point","coordinates":[3.09443387984409,50.6605230382463]},"properties":{"OBJECTID":20,"INSEE":"378","COMMUNE":"Marcq en Baroeul","NOM_STATIO":"BROSSOLETTE","URL":"http://www.transpole.fr/fr/metro_tram/lignes-tram.aspx","LIBELLE":"Brossolette","URL_MEL":"http://www.lillemetropole.fr/mel/institution/competences/transports-mobilite/transports-en-commun.html"}}
,{"type":"Feature","geometry":{"type":"Point","coordinates":[3.1145036577411,50.6796524475637]},"properties":{"OBJECTID":24,"INSEE":"378","COMMUNE":"Marcq en Baroeul","NOM_STATIO":"CHÂTEAU ROUGE","URL":"http://www.transpole.fr/fr/metro_tram/lignes-tram.aspx","LIBELLE":"Château Rouge","URL_MEL":"http://www.lillemetropole.fr/mel/institution/competences/transports-mobilite/transports-en-commun.html"}}
,{"type":"Feature","geometry":{"type":"Point","coordinates":[3.09653528934458,50.6619743832344]},"properties":{"OBJECTID":26,"INSEE":"378","COMMUNE":"Marcq en Baroeul","NOM_STATIO":"CLEMENCEAU HIPPODROME","URL":"http://www.transpole.fr/fr/metro_tram/lignes-tram.aspx","LIBELLE":"Clemenceau Hippodrome","URL_MEL":"http://www.lillemetropole.fr/mel/institution/competences/transports-mobilite/transports-en-commun.html"}}
,{"type":"Feature","geometry":{"type":"Point","coordinates":[3.10200286130913,50.6647059587674]},"properties":{"OBJECTID":28,"INSEE":"378","COMMUNE":"Marcq en Baroeul","NOM_STATIO":"CROISE LAROCHE","URL":"http://www.transpole.fr/fr/metro_tram/lignes-tram.aspx","LIBELLE":"Croise Laroche","URL_MEL":"http://www.lillemetropole.fr/mel/institution/competences/transports-mobilite/transports-en-commun.html"}}
,{"type":"Feature","geometry":{"type":"Point","coordinates":[3.10700500549243,50.6735118708951]},"properties":{"OBJECTID":31,"INSEE":"378","COMMUNE":"Marcq en Baroeul","NOM_STATIO":"LE QUESNE","URL":"http://www.transpole.fr/fr/metro_tram/lignes-tram.aspx","LIBELLE":"Le Quesne","URL_MEL":"http://www.lillemetropole.fr/mel/institution/competences/transports-mobilite/transports-en-commun.html"}}
,{"type":"Feature","geometry":{"type":"Point","coordinates":[3.14222827506866,50.7033091352017]},"properties":{"OBJECTID":33,"INSEE":"421","COMMUNE":"Mouvaux","NOM_STATIO":"FAIDHERBE","URL":"http://www.transpole.fr/fr/metro_tram/lignes-tram.aspx","LIBELLE":"Faidherbe","URL_MEL":"http://www.lillemetropole.fr/mel/institution/competences/transports-mobilite/transports-en-commun.html"}}
,{"type":"Feature","geometry":{"type":"Point","coordinates":[3.13843211530891,50.698773390134]},"properties":{"OBJECTID":36,"INSEE":"421","COMMUNE":"Mouvaux","NOM_STATIO":"TROIS SUISSES","URL":"http://www.transpole.fr/fr/metro_tram/lignes-tram.aspx","LIBELLE":"Trois Suisses","URL_MEL":"http://www.lillemetropole.fr/mel/institution/competences/transports-mobilite/transports-en-commun.html"}}
,{"type":"Feature","geometry":{"type":"Point","coordinates":[3.15615846073483,50.6722087783862]},"properties":{"OBJECTID":38,"INSEE":"512","COMMUNE":"Roubaix","NOM_STATIO":"BOL D'AIR","URL":"http://www.transpole.fr/fr/metro_tram/lignes-tram.aspx","LIBELLE":"Bol D'Air","URL_MEL":"http://www.lillemetropole.fr/mel/institution/competences/transports-mobilite/transports-en-commun.html"}}
,{"type":"Feature","geometry":{"type":"Point","coordinates":[3.16758482898679,50.6810575044886]},"properties":{"OBJECTID":40,"INSEE":"512","COMMUNE":"Roubaix","NOM_STATIO":"HOPITAL V. PROVO","URL":"http://www.transpole.fr/fr/metro_tram/lignes-tram.aspx","LIBELLE":"Hopital V. Provo","URL_MEL":"http://www.lillemetropole.fr/mel/institution/competences/transports-mobilite/transports-en-commun.html"}}
,{"type":"Feature","geometry":{"type":"Point","coordinates":[3.17532474448441,50.6879013091521]},"properties":{"OBJECTID":44,"INSEE":"512","COMMUNE":"Roubaix","NOM_STATIO":"ALFRED MONGY","URL":"http://www.transpole.fr/fr/metro_tram/lignes-tram.aspx","LIBELLE":"Alfred Mongy","URL_MEL":"http://www.lillemetropole.fr/mel/institution/competences/transports-mobilite/transports-en-commun.html"}}
,{"type":"Feature","geometry":{"type":"Point","coordinates":[3.15332551185664,50.7100116026647]},"properties":{"OBJECTID":46,"INSEE":"599","COMMUNE":"Tourcoing","NOM_STATIO":"MA CAMPAGNE","URL":"http://www.transpole.fr/fr/metro_tram/lignes-tram.aspx","LIBELLE":"Ma Campagne","URL_MEL":"http://www.lillemetropole.fr/mel/institution/competences/transports-mobilite/transports-en-commun.html"}}
,{"type":"Feature","geometry":{"type":"Point","coordinates":[3.15619127818762,50.7125810742229]},"properties":{"OBJECTID":48,"INSEE":"599","COMMUNE":"Tourcoing","NOM_STATIO":"PONT HYDRAULIQUE","URL":"http://www.transpole.fr/fr/metro_tram/lignes-tram.aspx","LIBELLE":"Pont Hydraulique","URL_MEL":"http://www.lillemetropole.fr/mel/institution/competences/transports-mobilite/transports-en-commun.html"}}
,{"type":"Feature","geometry":{"type":"Point","coordinates":[3.1588462751088,50.7207863647449]},"properties":{"OBJECTID":50,"INSEE":"599","COMMUNE":"Tourcoing","NOM_STATIO":"TOURCOING CENTRE","URL":"http://www.transpole.fr/fr/metro_tram/lignes-tram.aspx","LIBELLE":"Tourcoing Centre","URL_MEL":"http://www.lillemetropole.fr/mel/institution/competences/transports-mobilite/transports-en-commun.html"}}
,{"type":"Feature","geometry":{"type":"Point","coordinates":[3.11943321892278,50.6836164037349]},"properties":{"OBJECTID":54,"INSEE":"646","COMMUNE":"Wasquehal","NOM_STATIO":"CARTELOT","URL":"http://www.transpole.fr/fr/metro_tram/lignes-tram.aspx","LIBELLE":"Cartelot","URL_MEL":"http://www.lillemetropole.fr/mel/institution/competences/transports-mobilite/transports-en-commun.html"}}
,{"type":"Feature","geometry":{"type":"Point","coordinates":[3.12362879357817,50.6868154325152]},"properties":{"OBJECTID":56,"INSEE":"646","COMMUNE":"Wasquehal","NOM_STATIO":"GRAND COTTIGNIES","URL":"http://www.transpole.fr/fr/metro_tram/lignes-tram.aspx","LIBELLE":"Grand Cottignies","URL_MEL":"http://www.lillemetropole.fr/mel/institution/competences/transports-mobilite/transports-en-commun.html"}}
,{"type":"Feature","geometry":{"type":"Point","coordinates":[3.12665305366658,50.663922609875]},"properties":{"OBJECTID":58,"INSEE":"646","COMMUNE":"Wasquehal","NOM_STATIO":"LA TERRASSE","URL":"http://www.transpole.fr/fr/metro_tram/lignes-tram.aspx","LIBELLE":"La Terrasse","URL_MEL":"http://www.lillemetropole.fr/mel/institution/competences/transports-mobilite/transports-en-commun.html"}}
,{"type":"Feature","geometry":{"type":"Point","coordinates":[3.13075404660691,50.6636991384838]},"properties":{"OBJECTID":60,"INSEE":"646","COMMUNE":"Wasquehal","NOM_STATIO":"PAVE DE LILLE","URL":"http://www.transpole.fr/fr/metro_tram/lignes-tram.aspx","LIBELLE":"Pave De Lille","URL_MEL":"http://www.lillemetropole.fr/mel/institution/competences/transports-mobilite/transports-en-commun.html"}}
,{"type":"Feature","geometry":{"type":"Point","coordinates":[3.17915684356245,50.6910751082448]},"properties":{"OBJECTID":64,"INSEE":"512","COMMUNE":"Roubaix","NOM_STATIO":"EUROTELEPORT","URL":"http://www.transpole.fr/fr/metro_tram/lignes-tram.aspx","LIBELLE":"Euroteleport","URL_MEL":"http://www.lillemetropole.fr/mel/institution/competences/transports-mobilite/transports-en-commun.html"}}
];
