vlille=[
{"type":"Feature","geometry":{"type":"Point","coordinates":[3.15718104358755,50.7147329740676]},"properties":{"OBJECTID":208,"NUMERO":257,"STATION":"257 Charles Wattinne (CB)","TPE":"AVEC_TPE","NOMBRE_BO":16,"ADRESSE":"PONT HYDRAULIQUE","YRGF93":7068677.64,"XRGF93":711121.25,"INSEE":59599}}
,{"type":"Feature","geometry":{"type":"Point","coordinates":[3.15988106140337,50.7107350091966]},"properties":{"OBJECTID":209,"NUMERO":258,"STATION":"258 Carliers (CB)","TPE":"AVEC_TPE","NOMBRE_BO":12,"ADRESSE":"135, CHAUSSEE GALILEE","YRGF93":7068232.48,"XRGF93":711313.19,"INSEE":59599}}
,{"type":"Feature","geometry":{"type":"Point","coordinates":[3.16051505358898,50.7046930092234]},"properties":{"OBJECTID":210,"NUMERO":259,"STATION":"259 Mercure","TPE":"SANS_TPE","NOMBRE_BO":18,"ADRESSE":"BOULEVARD GAMBETTA (FACE A LA STATION DE TAXI)","YRGF93":7067559.24,"XRGF93":711359.42,"INSEE":59599}}
,{"type":"Feature","geometry":{"type":"Point","coordinates":[3.15797802051511,50.7210100361728]},"properties":{"OBJECTID":211,"NUMERO":260,"STATION":"260 Place Roussel (CB)","TPE":"AVEC_TPE","NOMBRE_BO":20,"ADRESSE":"45, PLACE CHARLES ET ALBERT ROUSSEL","YRGF93":7069377.29,"XRGF93":711176.24,"INSEE":59599}}
,{"type":"Feature","geometry":{"type":"Point","coordinates":[3.15765597882114,50.7322769964424]},"properties":{"OBJECTID":212,"NUMERO":261,"STATION":"261 Phalempins","TPE":"SANS_TPE","NOMBRE_BO":16,"ADRESSE":"PHALEMPINS","YRGF93":7070632.89,"XRGF93":711150.95,"INSEE":59599}}
,{"type":"Feature","geometry":{"type":"Point","coordinates":[3.21501106372954,50.7011870162762]},"properties":{"OBJECTID":213,"NUMERO":262,"STATION":"262 Wattrelos Place","TPE":"SANS_TPE","NOMBRE_BO":18,"ADRESSE":"2-10 D660","YRGF93":7067177.7,"XRGF93":715217.08,"INSEE":59650}}
,{"type":"Feature","geometry":{"type":"Point","coordinates":[3.20915596957174,50.6962600007442]},"properties":{"OBJECTID":214,"NUMERO":263,"STATION":"263 Stalingrad","TPE":"SANS_TPE","NOMBRE_BO":12,"ADRESSE":"38-4 RUE DE STALINGRAD","YRGF93":7066627.52,"XRGF93":714804.15,"INSEE":59650}}
,{"type":"Feature","geometry":{"type":"Point","coordinates":[3.07599201336462,50.6419260429629]},"properties":{"OBJECTID":1,"NUMERO":1,"STATION":"01 Lille Metropole (CB)","TPE":"AVEC_TPE","NOMBRE_BO":36,"ADRESSE":"LMCU RUE DU BALLON","YRGF93":7060555.77,"XRGF93":705384.58,"INSEE":59350}}
,{"type":"Feature","geometry":{"type":"Point","coordinates":[3.04613404729663,50.6322330371168]},"properties":{"OBJECTID":2,"NUMERO":2,"STATION":"02 Universite Catholique (CB)","TPE":"AVEC_TPE","NOMBRE_BO":31,"ADRESSE":"RUE DU PORT BD VAUBAN","YRGF93":7059474.04,"XRGF93":703269.56,"INSEE":59350}}
,{"type":"Feature","geometry":{"type":"Point","coordinates":[3.05044702996644,50.636092985267]},"properties":{"OBJECTID":3,"NUMERO":3,"STATION":"03 Jardin Vauban","TPE":"SANS_TPE","NOMBRE_BO":18,"ADRESSE":"39 BOULEVARD VAUBAN","YRGF93":7059904.34,"XRGF93":703574.95,"INSEE":59350}}
,{"type":"Feature","geometry":{"type":"Point","coordinates":[3.04896100870057,50.6246950351521]},"properties":{"OBJECTID":4,"NUMERO":4,"STATION":"04 Maison Folie Wazemmes","TPE":"SANS_TPE","NOMBRE_BO":20,"ADRESSE":"28 RUE DE L'HOPITAL SAINT ROCH","YRGF93":7058634.21,"XRGF93":703470.43,"INSEE":59350}}
,{"type":"Feature","geometry":{"type":"Point","coordinates":[3.05473797881313,50.6315599697214]},"properties":{"OBJECTID":5,"NUMERO":5,"STATION":"05 Massena (CB)","TPE":"AVEC_TPE","NOMBRE_BO":32,"ADRESSE":"73 RUE MASSENA","YRGF93":7059399.43,"XRGF93":703879.38,"INSEE":59350}}
,{"type":"Feature","geometry":{"type":"Point","coordinates":[3.06029897038114,50.6309430125244]},"properties":{"OBJECTID":6,"NUMERO":6,"STATION":"06 Republique Beaux Arts (CB)","TPE":"AVEC_TPE","NOMBRE_BO":24,"ADRESSE":"2 RUE INKERMAN","YRGF93":7059330.97,"XRGF93":704273.55,"INSEE":59350}}
,{"type":"Feature","geometry":{"type":"Point","coordinates":[3.0553070232891,50.6337279943673]},"properties":{"OBJECTID":7,"NUMERO":7,"STATION":"07 Place de Strasbourg","TPE":"SANS_TPE","NOMBRE_BO":16,"ADRESSE":"7 PLACE DE STRASBOURG","YRGF93":7059641.04,"XRGF93":703919.54,"INSEE":59350}}
,{"type":"Feature","geometry":{"type":"Point","coordinates":[3.06231293603442,50.6323659698762]},"properties":{"OBJECTID":8,"NUMERO":8,"STATION":"08 Place Richebe (CB)","TPE":"AVEC_TPE","NOMBRE_BO":32,"ADRESSE":"3 PLACE RICHEBE","YRGF93":7059489.64,"XRGF93":704416.16,"INSEE":59350}}
,{"type":"Feature","geometry":{"type":"Point","coordinates":[3.04498601172913,50.633930045632]},"properties":{"OBJECTID":9,"NUMERO":9,"STATION":"09 Rue de Toul","TPE":"SANS_TPE","NOMBRE_BO":36,"ADRESSE":"18 RUE DE TOUL","YRGF93":7059663.09,"XRGF93":703188.09,"INSEE":59350}}
,{"type":"Feature","geometry":{"type":"Point","coordinates":[3.06247097983466,50.6358899946941]},"properties":{"OBJECTID":10,"NUMERO":10,"STATION":"10 Rihour (CB)","TPE":"AVEC_TPE","NOMBRE_BO":32,"ADRESSE":"ANGLE PLACE RIHOUR RUE JEAN ROISIN","YRGF93":7059882.33,"XRGF93":704427.05,"INSEE":59350}}
,{"type":"Feature","geometry":{"type":"Point","coordinates":[3.06097695319523,50.6373399861741]},"properties":{"OBJECTID":11,"NUMERO":11,"STATION":"11 Nouveau siecle (CB)","TPE":"AVEC_TPE","NOMBRE_BO":32,"ADRESSE":"10 RUE DE PAS (SUR LA PLACE PIERRE MENDES FRANCE)","YRGF93":7060043.82,"XRGF93":704321.05,"INSEE":59350}}
,{"type":"Feature","geometry":{"type":"Point","coordinates":[3.06590195513533,50.6374859932316]},"properties":{"OBJECTID":12,"NUMERO":12,"STATION":"12 Opera (CB)","TPE":"AVEC_TPE","NOMBRE_BO":25,"ADRESSE":"FACE AU 8 RUE ANATOLE FRANCE","YRGF93":7060060.37,"XRGF93":704670.04,"INSEE":59350}}
,{"type":"Feature","geometry":{"type":"Point","coordinates":[3.05477294431677,50.6367100155024]},"properties":{"OBJECTID":13,"NUMERO":13,"STATION":"13 Quai du Wault (CB)","TPE":"AVEC_TPE","NOMBRE_BO":18,"ADRESSE":"17 SQUARE DUTILLEUL","YRGF93":7059973.3,"XRGF93":703881.46,"INSEE":59350}}
,{"type":"Feature","geometry":{"type":"Point","coordinates":[3.05221695583556,50.6378100103297]},"properties":{"OBJECTID":14,"NUMERO":14,"STATION":"14 Champ de Mars (CB)","TPE":"AVEC_TPE","NOMBRE_BO":40,"ADRESSE":"AVENUE LEON JOUHAUX (QUAI DE LA CITADELLE)","YRGF93":7060095.75,"XRGF93":703700.25,"INSEE":59350}}
,{"type":"Feature","geometry":{"type":"Point","coordinates":[3.05064500288904,50.6448999853469]},"properties":{"OBJECTID":15,"NUMERO":15,"STATION":"15 Esplanade (CB)","TPE":"AVEC_TPE","NOMBRE_BO":24,"ADRESSE":"PONT DU PETIT PARADIS","YRGF93":7060885.72,"XRGF93":703588.35,"INSEE":59350}}
,{"type":"Feature","geometry":{"type":"Point","coordinates":[3.05349894113009,50.6462249830695]},"properties":{"OBJECTID":16,"NUMERO":16,"STATION":"16 Magasin","TPE":"SANS_TPE","NOMBRE_BO":16,"ADRESSE":"3 RUE SAINT ANDRE","YRGF93":7061033.5,"XRGF93":703790.46,"INSEE":59350}}
,{"type":"Feature","geometry":{"type":"Point","coordinates":[3.06086704857652,50.6446950037316]},"properties":{"OBJECTID":17,"NUMERO":17,"STATION":"17 Halle aux sucres (CB)","TPE":"AVEC_TPE","NOMBRE_BO":19,"ADRESSE":"33 AVENUE DU PEUPLE BELGE","YRGF93":7060863.39,"XRGF93":704312.63,"INSEE":59350}}
,{"type":"Feature","geometry":{"type":"Point","coordinates":[3.05593206691473,50.6428000123936]},"properties":{"OBJECTID":18,"NUMERO":18,"STATION":"18 Voltaire","TPE":"SANS_TPE","NOMBRE_BO":14,"ADRESSE":"93 RUE ROYALE","YRGF93":7060651.97,"XRGF93":703963.12,"INSEE":59350}}
,{"type":"Feature","geometry":{"type":"Point","coordinates":[3.05774006079608,50.6403100203483]},"properties":{"OBJECTID":19,"NUMERO":19,"STATION":"19 Rue Royale (CB)","TPE":"AVEC_TPE","NOMBRE_BO":24,"ADRESSE":"40 RUE ROYALE","YRGF93":7060374.6,"XRGF93":704091.43,"INSEE":59350}}
,{"type":"Feature","geometry":{"type":"Point","coordinates":[3.06205305716685,50.6403850281489]},"properties":{"OBJECTID":20,"NUMERO":20,"STATION":"20 N,D, de la Treille","TPE":"SANS_TPE","NOMBRE_BO":30,"ADRESSE":"PLACE GILLSON","YRGF93":7060383.19,"XRGF93":704397.04,"INSEE":59350}}
,{"type":"Feature","geometry":{"type":"Point","coordinates":[3.06177397868217,50.6419299812742]},"properties":{"OBJECTID":21,"NUMERO":21,"STATION":"21 Place du Concert (CB)","TPE":"AVEC_TPE","NOMBRE_BO":20,"ADRESSE":"RUE ALPHONSE COLAS","YRGF93":7060555.33,"XRGF93":704377.13,"INSEE":59350}}
,{"type":"Feature","geometry":{"type":"Point","coordinates":[3.06498701610384,50.6412400227483]},"properties":{"OBJECTID":22,"NUMERO":22,"STATION":"22 Louise de Bettignies (CB)","TPE":"AVEC_TPE","NOMBRE_BO":30,"ADRESSE":"PLACE LOUISE DE BETTIGNIES","YRGF93":7060478.63,"XRGF93":704604.86,"INSEE":59350}}
,{"type":"Feature","geometry":{"type":"Point","coordinates":[3.06554803417074,50.6391070127026]},"properties":{"OBJECTID":23,"NUMERO":23,"STATION":"23 Rue des Arts","TPE":"SANS_TPE","NOMBRE_BO":18,"ADRESSE":"41 RUE DES ARTS","YRGF93":7060240.98,"XRGF93":704644.81,"INSEE":59350}}
,{"type":"Feature","geometry":{"type":"Point","coordinates":[3.0710089515067,50.6369799928296]},"properties":{"OBJECTID":24,"NUMERO":24,"STATION":"24 Flandres Euralille (CB)","TPE":"AVEC_TPE","NOMBRE_BO":40,"ADRESSE":"PLACE DES BUISSES","YRGF93":7060004.3,"XRGF93":705031.99,"INSEE":59350}}
,{"type":"Feature","geometry":{"type":"Point","coordinates":[3.06967804701915,50.6360300164326]},"properties":{"OBJECTID":25,"NUMERO":25,"STATION":"25 Gare Lille Flandres (CB)","TPE":"AVEC_TPE","NOMBRE_BO":20,"ADRESSE":"PLACE DE LA GARE","YRGF93":7059898.36,"XRGF93":704937.77,"INSEE":59350}}
,{"type":"Feature","geometry":{"type":"Point","coordinates":[3.06800699218707,50.6345700247578]},"properties":{"OBJECTID":26,"NUMERO":26,"STATION":"26 Molinel","TPE":"SANS_TPE","NOMBRE_BO":22,"ADRESSE":"58 RUE DU MOLINEL","YRGF93":7059735.57,"XRGF93":704819.49,"INSEE":59350}}
,{"type":"Feature","geometry":{"type":"Point","coordinates":[3.06480200764888,50.6350139902787]},"properties":{"OBJECTID":27,"NUMERO":27,"STATION":"27 Tanneurs (CB)","TPE":"AVEC_TPE","NOMBRE_BO":36,"ADRESSE":"2 - 10 RUE DES TANNEURS","YRGF93":7059784.85,"XRGF93":704592.32,"INSEE":59350}}
,{"type":"Feature","geometry":{"type":"Point","coordinates":[3.04834394495583,50.6346860317407]},"properties":{"OBJECTID":28,"NUMERO":28,"STATION":"28 Palais Rameau (CB)","TPE":"AVEC_TPE","NOMBRE_BO":40,"ADRESSE":"17 RUE SOLFERINO","YRGF93":7059747.47,"XRGF93":703426.01,"INSEE":59350}}
,{"type":"Feature","geometry":{"type":"Point","coordinates":[3.05937597991359,50.6472360263528]},"properties":{"OBJECTID":29,"NUMERO":29,"STATION":"29 St Sebastien (CB)","TPE":"AVEC_TPE","NOMBRE_BO":20,"ADRESSE":"40 RUE SAINT SEBASTIEN","YRGF93":7061146.46,"XRGF93":704206.77,"INSEE":59350}}
,{"type":"Feature","geometry":{"type":"Point","coordinates":[3.06745198692577,50.6430600138985]},"properties":{"OBJECTID":30,"NUMERO":30,"STATION":"30 Rue de Gand (CB)","TPE":"AVEC_TPE","NOMBRE_BO":20,"ADRESSE":"8 PLACE DE GAND","YRGF93":7060681.58,"XRGF93":704779.35,"INSEE":59350}}
,{"type":"Feature","geometry":{"type":"Point","coordinates":[3.0629350086587,50.6442640224634]},"properties":{"OBJECTID":31,"NUMERO":31,"STATION":"31 Pont Neuf","TPE":"SANS_TPE","NOMBRE_BO":20,"ADRESSE":"38 BIS RUE DU PONT NEUF","YRGF93":7060815.48,"XRGF93":704459.19,"INSEE":59350}}
,{"type":"Feature","geometry":{"type":"Point","coordinates":[3.0678730253853,50.6414200262913]},"properties":{"OBJECTID":32,"NUMERO":32,"STATION":"32 Place aux Bleuets","TPE":"SANS_TPE","NOMBRE_BO":16,"ADRESSE":"15 RUE DE COURTRAI","YRGF93":7060498.86,"XRGF93":704809.34,"INSEE":59350}}
,{"type":"Feature","geometry":{"type":"Point","coordinates":[3.03568093114939,50.6302199557571]},"properties":{"OBJECTID":33,"NUMERO":33,"STATION":"33 Port de Lille","TPE":"SANS_TPE","NOMBRE_BO":26,"ADRESSE":"18 RUE DE TURENNE","YRGF93":7059249.34,"XRGF93":702528.84,"INSEE":59350}}
,{"type":"Feature","geometry":{"type":"Point","coordinates":[3.0412090374972,50.634129957192]},"properties":{"OBJECTID":34,"NUMERO":34,"STATION":"34 Place Catinat (CB)","TPE":"AVEC_TPE","NOMBRE_BO":20,"ADRESSE":"199 RUE COLBERT","YRGF93":7059685.22,"XRGF93":702920.41,"INSEE":59350}}
,{"type":"Feature","geometry":{"type":"Point","coordinates":[3.04330695886937,50.6289900217326]},"properties":{"OBJECTID":35,"NUMERO":35,"STATION":"35 Leclerc (CB)","TPE":"AVEC_TPE","NOMBRE_BO":23,"ADRESSE":"24 PLACE MARECHAL LECLERC","YRGF93":7059112.56,"XRGF93":703069.4,"INSEE":59350}}
,{"type":"Feature","geometry":{"type":"Point","coordinates":[3.03991093216277,50.6262399832845]},"properties":{"OBJECTID":36,"NUMERO":36,"STATION":"36 Cormontaigne (CB)","TPE":"AVEC_TPE","NOMBRE_BO":28,"ADRESSE":"16 - 36 PLACE CORMONTAIGNE","YRGF93":7058806,"XRGF93":702828.86,"INSEE":59350}}
,{"type":"Feature","geometry":{"type":"Point","coordinates":[3.0375529512079,50.6233699921269]},"properties":{"OBJECTID":37,"NUMERO":37,"STATION":"37 Fulton","TPE":"SANS_TPE","NOMBRE_BO":12,"ADRESSE":"14 RUE DU BAZINGHIEN","YRGF93":7058486.12,"XRGF93":702661.88,"INSEE":59350}}
,{"type":"Feature","geometry":{"type":"Point","coordinates":[3.04532104741156,50.6242899672958]},"properties":{"OBJECTID":38,"NUMERO":38,"STATION":"38 Place Casquette","TPE":"SANS_TPE","NOMBRE_BO":18,"ADRESSE":"1 RUE D'HAUBOURDIN","YRGF93":7058588.92,"XRGF93":703212.45,"INSEE":59350}}
,{"type":"Feature","geometry":{"type":"Point","coordinates":[3.05017304463004,50.6276740418316]},"properties":{"OBJECTID":39,"NUMERO":39,"STATION":"39 Marche de Wazemmes (CB)","TPE":"AVEC_TPE","NOMBRE_BO":23,"ADRESSE":"298 RUE LEON GAMBETTA","YRGF93":7058966.21,"XRGF93":703556.13,"INSEE":59350}}
,{"type":"Feature","geometry":{"type":"Point","coordinates":[3.05172894515983,50.6261399543438]},"properties":{"OBJECTID":40,"NUMERO":40,"STATION":"40 Metro Gambetta (CB)","TPE":"AVEC_TPE","NOMBRE_BO":16,"ADRESSE":"41 RUE DU MARCHE","YRGF93":7058795.34,"XRGF93":703666.52,"INSEE":59350}}
,{"type":"Feature","geometry":{"type":"Point","coordinates":[3.08800404431458,50.6564869720245]},"properties":{"OBJECTID":41,"NUMERO":41,"STATION":"41 Buisson (CB)","TPE":"AVEC_TPE","NOMBRE_BO":16,"ADRESSE":"681 AVENUE DE LA REPUBLIQUE","YRGF93":7062179.21,"XRGF93":706233.91,"INSEE":59350}}
,{"type":"Feature","geometry":{"type":"Point","coordinates":[3.06197403645449,50.6275859678366]},"properties":{"OBJECTID":42,"NUMERO":42,"STATION":"42 Place Philippe Lebon (CB)","TPE":"AVEC_TPE","NOMBRE_BO":18,"ADRESSE":"15 PLACE PHILLIPPE LEBON","YRGF93":7058956.99,"XRGF93":704392.56,"INSEE":59350}}
,{"type":"Feature","geometry":{"type":"Point","coordinates":[3.05828795268469,50.6290440197702]},"properties":{"OBJECTID":43,"NUMERO":43,"STATION":"43 Theatre Sebastopol (CB)","TPE":"AVEC_TPE","NOMBRE_BO":24,"ADRESSE":"3 PLACE SEBASTOPOL","YRGF93":7059119.26,"XRGF93":704131.18,"INSEE":59350}}
,{"type":"Feature","geometry":{"type":"Point","coordinates":[3.05371106464005,50.6290629560917]},"properties":{"OBJECTID":44,"NUMERO":44,"STATION":"44 Gambetta Utrecht","TPE":"SANS_TPE","NOMBRE_BO":18,"ADRESSE":"199 RUE LEON GAMBETTA","YRGF93":7059121.14,"XRGF93":703806.79,"INSEE":59350}}
,{"type":"Feature","geometry":{"type":"Point","coordinates":[3.0566660202972,50.6264799914846]},"properties":{"OBJECTID":45,"NUMERO":45,"STATION":"45 Brule Maison","TPE":"SANS_TPE","NOMBRE_BO":18,"ADRESSE":"51 RUE DES POSTES","YRGF93":7058833.47,"XRGF93":704016.43,"INSEE":59350}}
,{"type":"Feature","geometry":{"type":"Point","coordinates":[3.06119802163767,50.6262900064659]},"properties":{"OBJECTID":46,"NUMERO":46,"STATION":"46 Artois (CB)","TPE":"AVEC_TPE","NOMBRE_BO":18,"ADRESSE":"12 RUE D'ARTOIS","YRGF93":7058812.54,"XRGF93":704337.67,"INSEE":59350}}
,{"type":"Feature","geometry":{"type":"Point","coordinates":[3.0692329632747,50.6282400412081]},"properties":{"OBJECTID":47,"NUMERO":47,"STATION":"47 Boulevard Louis XIV (CB)","TPE":"AVEC_TPE","NOMBRE_BO":24,"ADRESSE":"1 BOULEVARD JEAN BAPTISTE LEBAS","YRGF93":7059030.3,"XRGF93":704906.99,"INSEE":59350}}
,{"type":"Feature","geometry":{"type":"Point","coordinates":[3.07219993168202,50.6183099614695]},"properties":{"OBJECTID":48,"NUMERO":48,"STATION":"48 Porte de Douai (CB)","TPE":"AVEC_TPE","NOMBRE_BO":32,"ADRESSE":"PLACE FERNIG","YRGF93":7057924,"XRGF93":705118.29,"INSEE":59350}}
,{"type":"Feature","geometry":{"type":"Point","coordinates":[3.06838703103367,50.6195699821935]},"properties":{"OBJECTID":49,"NUMERO":49,"STATION":"49 Place Deliot","TPE":"SANS_TPE","NOMBRE_BO":24,"ADRESSE":"1 PLACE DELIOT","YRGF93":7058064.16,"XRGF93":704847.87,"INSEE":59350}}
,{"type":"Feature","geometry":{"type":"Point","coordinates":[3.06700405292155,50.6222400043659]},"properties":{"OBJECTID":50,"NUMERO":50,"STATION":"50 Rue d'Arras (CB)","TPE":"AVEC_TPE","NOMBRE_BO":25,"ADRESSE":"4 RUE WAZEMMES","YRGF93":7058361.59,"XRGF93":704749.58,"INSEE":59350}}
,{"type":"Feature","geometry":{"type":"Point","coordinates":[3.06868903805533,50.6248200328163]},"properties":{"OBJECTID":51,"NUMERO":51,"STATION":"51 JB Lebas","TPE":"SANS_TPE","NOMBRE_BO":32,"ADRESSE":"2 RUE CAMBRAI","YRGF93":7058649.18,"XRGF93":704868.77,"INSEE":59350}}
,{"type":"Feature","geometry":{"type":"Point","coordinates":[3.06379895525316,50.6227599658421]},"properties":{"OBJECTID":52,"NUMERO":52,"STATION":"52 Place Colette Besson","TPE":"SANS_TPE","NOMBRE_BO":22,"ADRESSE":"FACE AU 37 RUE DE WAZEMMES","YRGF93":7058419.34,"XRGF93":704522.34,"INSEE":59350}}
,{"type":"Feature","geometry":{"type":"Point","coordinates":[3.04925098018357,50.6185600003583]},"properties":{"OBJECTID":53,"NUMERO":53,"STATION":"53 Porte des Postes (CB)","TPE":"AVEC_TPE","NOMBRE_BO":38,"ADRESSE":"1 PLACE BARTHELEMY DOREZ","YRGF93":7057950.61,"XRGF93":703491.41,"INSEE":59350}}
,{"type":"Feature","geometry":{"type":"Point","coordinates":[3.05156499316118,50.6233800391529]},"properties":{"OBJECTID":54,"NUMERO":54,"STATION":"54 Metro Wazemmes (CB)","TPE":"AVEC_TPE","NOMBRE_BO":20,"ADRESSE":"93 RUE RACINE","YRGF93":7058487.8,"XRGF93":703655.1,"INSEE":59350}}
,{"type":"Feature","geometry":{"type":"Point","coordinates":[3.06175804737339,50.6178470390018]},"properties":{"OBJECTID":55,"NUMERO":55,"STATION":"55 Porte d'Arras (CB)","TPE":"AVEC_TPE","NOMBRE_BO":24,"ADRESSE":"3 PLACE JACQUES FEBVRIER","YRGF93":7057871.79,"XRGF93":704378.1,"INSEE":59350}}
,{"type":"Feature","geometry":{"type":"Point","coordinates":[3.0554709769539,50.6203039855387]},"properties":{"OBJECTID":56,"NUMERO":56,"STATION":"56 Bd Victor Hugo (CB)","TPE":"AVEC_TPE","NOMBRE_BO":18,"ADRESSE":"214 BOULEVARD VICTOR HUGO","YRGF93":7058145.23,"XRGF93":703932.21,"INSEE":59350}}
,{"type":"Feature","geometry":{"type":"Point","coordinates":[3.05890192777795,50.6241799834045]},"properties":{"OBJECTID":57,"NUMERO":57,"STATION":"57 Barthelemy Delespaul","TPE":"SANS_TPE","NOMBRE_BO":18,"ADRESSE":"FACE AU 52 RUE BARTHELEMY DELESPAUL","YRGF93":7058577.3,"XRGF93":704175.1,"INSEE":59350}}
,{"type":"Feature","geometry":{"type":"Point","coordinates":[3.07894701119035,50.6208570227414]},"properties":{"OBJECTID":58,"NUMERO":58,"STATION":"58 Porte de Valenciennes (CB)","TPE":"AVEC_TPE","NOMBRE_BO":24,"ADRESSE":"BOULEVARD DE BELFORT","YRGF93":7058208.27,"XRGF93":705596.31,"INSEE":59350}}
,{"type":"Feature","geometry":{"type":"Point","coordinates":[3.07712705085556,50.6222229987932]},"properties":{"OBJECTID":59,"NUMERO":59,"STATION":"59 Belfort","TPE":"SANS_TPE","NOMBRE_BO":30,"ADRESSE":"84 RUE DE TREVISE","YRGF93":7058360.35,"XRGF93":705467.15,"INSEE":59350}}
,{"type":"Feature","geometry":{"type":"Point","coordinates":[3.07236305066824,50.6211850130921]},"properties":{"OBJECTID":60,"NUMERO":60,"STATION":"60 Trevise","TPE":"SANS_TPE","NOMBRE_BO":20,"ADRESSE":"114 RUE DE DOUAI","YRGF93":7058244.37,"XRGF93":705129.56,"INSEE":59350}}
,{"type":"Feature","geometry":{"type":"Point","coordinates":[3.07521797819794,50.6292459926444]},"properties":{"OBJECTID":61,"NUMERO":61,"STATION":"61 Lille Grand Palais","TPE":"SANS_TPE","NOMBRE_BO":24,"ADRESSE":"30 BOULEVARD DU MARECHAL VAILLANT","YRGF93":7059142.78,"XRGF93":705331.08,"INSEE":59350}}
,{"type":"Feature","geometry":{"type":"Point","coordinates":[3.07643704114231,50.6329650084333]},"properties":{"OBJECTID":62,"NUMERO":62,"STATION":"62 Zenith (CB)","TPE":"AVEC_TPE","NOMBRE_BO":30,"ADRESSE":"BOULEVARD EMILE DUBUISSON","YRGF93":7059557.27,"XRGF93":705417.08,"INSEE":59350}}
,{"type":"Feature","geometry":{"type":"Point","coordinates":[3.07822403318314,50.6297379921854]},"properties":{"OBJECTID":63,"NUMERO":63,"STATION":"63 Hotel de Region (CB)","TPE":"AVEC_TPE","NOMBRE_BO":32,"ADRESSE":"BOULEVARD DU PRESIDENT HOOVER","YRGF93":7059197.81,"XRGF93":705544.08,"INSEE":59350}}
,{"type":"Feature","geometry":{"type":"Point","coordinates":[3.07139205263716,50.6318000082053]},"properties":{"OBJECTID":64,"NUMERO":64,"STATION":"64 Mairie de Lille (CB)","TPE":"AVEC_TPE","NOMBRE_BO":20,"ADRESSE":"17 RUE SAINT SAUVEUR","YRGF93":7059427.12,"XRGF93":705059.66,"INSEE":59350}}
,{"type":"Feature","geometry":{"type":"Point","coordinates":[3.03548304035121,50.621127983132]},"properties":{"OBJECTID":65,"NUMERO":65,"STATION":"65 Place Tacq (CB)","TPE":"AVEC_TPE","NOMBRE_BO":18,"ADRESSE":"70 RUE DE LOOS","YRGF93":7058236.23,"XRGF93":702515.27,"INSEE":59350}}
,{"type":"Feature","geometry":{"type":"Point","coordinates":[3.06627297215044,50.6323700216629]},"properties":{"OBJECTID":66,"NUMERO":66,"STATION":"66 Delesalle Mediatheque","TPE":"SANS_TPE","NOMBRE_BO":18,"ADRESSE":"35 RUE EDOUARD DELESALLE","YRGF93":7059490.32,"XRGF93":704696.81,"INSEE":59350}}
,{"type":"Feature","geometry":{"type":"Point","coordinates":[3.04533995791548,50.6219520369413]},"properties":{"OBJECTID":67,"NUMERO":67,"STATION":"67 Montebello (CB)","TPE":"AVEC_TPE","NOMBRE_BO":24,"ADRESSE":"122 BOULEVARD MONTEBELLO","YRGF93":7058328.41,"XRGF93":703213.94,"INSEE":59350}}
,{"type":"Feature","geometry":{"type":"Point","coordinates":[3.04777796425867,50.6308360145184]},"properties":{"OBJECTID":68,"NUMERO":68,"STATION":"68 Nationale Rue du Port","TPE":"SANS_TPE","NOMBRE_BO":24,"ADRESSE":"244 - 254 RUE NATIONALE","YRGF93":7059318.44,"XRGF93":703386.16,"INSEE":59350}}
,{"type":"Feature","geometry":{"type":"Point","coordinates":[3.03253902677427,50.618929959897]},"properties":{"OBJECTID":69,"NUMERO":69,"STATION":"69 Chasseurs de Driant","TPE":"SANS_TPE","NOMBRE_BO":22,"ADRESSE":"11 AVENUE VERHAEREN","YRGF93":7057991.22,"XRGF93":702306.68,"INSEE":59350}}
,{"type":"Feature","geometry":{"type":"Point","coordinates":[3.07399105072686,50.6342400293849]},"properties":{"OBJECTID":70,"NUMERO":70,"STATION":"70 Cite Administrative","TPE":"SANS_TPE","NOMBRE_BO":16,"ADRESSE":"51 RUE DE TOURNAI","YRGF93":7059699.18,"XRGF93":705243.6,"INSEE":59350}}
,{"type":"Feature","geometry":{"type":"Point","coordinates":[3.03077793001828,50.6340450334215]},"properties":{"OBJECTID":71,"NUMERO":71,"STATION":"71 Bois Blancs (CB)","TPE":"AVEC_TPE","NOMBRE_BO":22,"ADRESSE":"122 AVENUE DE DUNKERQUE","YRGF93":7059675.42,"XRGF93":702181.18,"INSEE":59350}}
,{"type":"Feature","geometry":{"type":"Point","coordinates":[3.02431399370146,50.6373019637253]},"properties":{"OBJECTID":72,"NUMERO":72,"STATION":"72 Canteleu","TPE":"SANS_TPE","NOMBRE_BO":18,"ADRESSE":"237 AVENUE DE DUNKERQUE","YRGF93":7060038.18,"XRGF93":701722.98,"INSEE":59350}}
,{"type":"Feature","geometry":{"type":"Point","coordinates":[3.0879790636257,50.6423149662172]},"properties":{"OBJECTID":73,"NUMERO":73,"STATION":"73 St Maurice Pellevoisin (CB)","TPE":"AVEC_TPE","NOMBRE_BO":24,"ADRESSE":"211 RUE DU FAUBOURG DE ROUBAIX","YRGF93":7060599.99,"XRGF93":706233.9,"INSEE":59350}}
,{"type":"Feature","geometry":{"type":"Point","coordinates":[3.08249304028785,50.6410180159949]},"properties":{"OBJECTID":74,"NUMERO":74,"STATION":"74 Faubourg de Roubaix","TPE":"SANS_TPE","NOMBRE_BO":17,"ADRESSE":"104 RUE DU FAUBOURG DE ROUBAIX","YRGF93":7060455.05,"XRGF93":705845.33,"INSEE":59350}}
,{"type":"Feature","geometry":{"type":"Point","coordinates":[3.08489401070186,50.6373369754388]},"properties":{"OBJECTID":75,"NUMERO":75,"STATION":"75 Eugene Jacquet (CB)","TPE":"AVEC_TPE","NOMBRE_BO":21,"ADRESSE":"59 RUE EUGENE JACQUET","YRGF93":7060045.05,"XRGF93":706015.9,"INSEE":59350}}
,{"type":"Feature","geometry":{"type":"Point","coordinates":[3.08965104652114,50.6329960156533]},"properties":{"OBJECTID":76,"NUMERO":76,"STATION":"76 Fives (CB)","TPE":"AVEC_TPE","NOMBRE_BO":24,"ADRESSE":"123 RUE PIERRE LEGRAND","YRGF93":7059561.71,"XRGF93":706353.55,"INSEE":59350}}
,{"type":"Feature","geometry":{"type":"Point","coordinates":[3.09136301053642,50.6229629701006]},"properties":{"OBJECTID":77,"NUMERO":77,"STATION":"77 Mont de Terre","TPE":"SANS_TPE","NOMBRE_BO":18,"ADRESSE":"7 RUE MATTEOTI","YRGF93":7058443.88,"XRGF93":706476.17,"INSEE":59350}}
,{"type":"Feature","geometry":{"type":"Point","coordinates":[3.04851805693284,50.6155359756346]},"properties":{"OBJECTID":78,"NUMERO":78,"STATION":"78 Hotel de Police","TPE":"SANS_TPE","NOMBRE_BO":18,"ADRESSE":"RUE DU FAUBOURG DES POSTES","YRGF93":7057613.62,"XRGF93":703439.66,"INSEE":59350}}
,{"type":"Feature","geometry":{"type":"Point","coordinates":[3.04722099691119,50.6130700069007]},"properties":{"OBJECTID":79,"NUMERO":79,"STATION":"79 Cimetiere du Sud (CB)","TPE":"AVEC_TPE","NOMBRE_BO":20,"ADRESSE":"65 RUE DU FAUBOURG DES POSTES","YRGF93":7057338.79,"XRGF93":703347.87,"INSEE":59350}}
,{"type":"Feature","geometry":{"type":"Point","coordinates":[3.08435696629843,50.6198899669551]},"properties":{"OBJECTID":80,"NUMERO":80,"STATION":"80 Petit Maroc (CB)","TPE":"AVEC_TPE","NOMBRE_BO":30,"ADRESSE":"RUE DU PROFESSEUR LANGEVIN","YRGF93":7058100.91,"XRGF93":705979.92,"INSEE":59350}}
,{"type":"Feature","geometry":{"type":"Point","coordinates":[3.11508803357418,50.6352899553262]},"properties":{"OBJECTID":81,"NUMERO":81,"STATION":"81 Guinguette","TPE":"SANS_TPE","NOMBRE_BO":10,"ADRESSE":"RUE JACQUARD","YRGF93":7059819.66,"XRGF93":708155.89,"INSEE":59350}}
,{"type":"Feature","geometry":{"type":"Point","coordinates":[3.07520401301573,50.6399899852484]},"properties":{"OBJECTID":82,"NUMERO":82,"STATION":"82 Gare Lille Europe (CB)","TPE":"AVEC_TPE","NOMBRE_BO":32,"ADRESSE":"299 BOULEVARD DE LEEDS","YRGF93":7060339.98,"XRGF93":705328.95,"INSEE":59350}}
,{"type":"Feature","geometry":{"type":"Point","coordinates":[3.02066001900143,50.6340700137141]},"properties":{"OBJECTID":83,"NUMERO":83,"STATION":"83 EuraTechnologies (CB)","TPE":"AVEC_TPE","NOMBRE_BO":24,"ADRESSE":"AVENUE DE BRETAGNE (DEVANT L ENTREE D EURATECHNOLOGIE)","YRGF93":7059677.97,"XRGF93":701464.14,"INSEE":59350}}
,{"type":"Feature","geometry":{"type":"Point","coordinates":[3.10926594764354,50.6272430168171]},"properties":{"OBJECTID":84,"NUMERO":84,"STATION":"84 Hellemmes (CB)","TPE":"AVEC_TPE","NOMBRE_BO":24,"ADRESSE":"165 RUE ROGER SALENGRO","YRGF93":7058922.41,"XRGF93":707744.54,"INSEE":59350}}
,{"type":"Feature","geometry":{"type":"Point","coordinates":[3.10072896736523,50.6251829903044]},"properties":{"OBJECTID":85,"NUMERO":85,"STATION":"85 Chanzy","TPE":"SANS_TPE","NOMBRE_BO":12,"ADRESSE":"58 RUE CHANZY","YRGF93":7058692.06,"XRGF93":707139.75,"INSEE":59350}}
,{"type":"Feature","geometry":{"type":"Point","coordinates":[3.10401705859884,50.6287420246421]},"properties":{"OBJECTID":86,"NUMERO":86,"STATION":"86 Roger Salengro","TPE":"SANS_TPE","NOMBRE_BO":12,"ADRESSE":"68 RUE ROGER SALENGRO","YRGF93":7059088.94,"XRGF93":707372.29,"INSEE":59350}}
,{"type":"Feature","geometry":{"type":"Point","coordinates":[3.11066898535006,50.6323930384357]},"properties":{"OBJECTID":87,"NUMERO":87,"STATION":"87 Jules Guesde (CB)","TPE":"AVEC_TPE","NOMBRE_BO":12,"ADRESSE":"RUE ST ELOI","YRGF93":7059496.41,"XRGF93":707843.18,"INSEE":59350}}
,{"type":"Feature","geometry":{"type":"Point","coordinates":[3.05801499912889,50.6350819617193]},"properties":{"OBJECTID":88,"NUMERO":88,"STATION":"88 Rue Nationale (CB)","TPE":"AVEC_TPE","NOMBRE_BO":30,"ADRESSE":"91 RUE NATIONALE","YRGF93":7059792.05,"XRGF93":704111.34,"INSEE":59350}}
,{"type":"Feature","geometry":{"type":"Point","coordinates":[3.04129901323904,50.6193119996488]},"properties":{"OBJECTID":89,"NUMERO":89,"STATION":"89 Boulevard de Metz","TPE":"SANS_TPE","NOMBRE_BO":18,"ADRESSE":"40 BOULEVARD DE METZ","YRGF93":7058034.08,"XRGF93":702927.65,"INSEE":59350}}
,{"type":"Feature","geometry":{"type":"Point","coordinates":[3.08604895473575,50.6451070072189]},"properties":{"OBJECTID":90,"NUMERO":90,"STATION":"90 Louviere (CB)","TPE":"AVEC_TPE","NOMBRE_BO":20,"ADRESSE":"1 RUE DU DIEU DE MARCQ","YRGF93":7060910.96,"XRGF93":706096.8,"INSEE":59350}}
,{"type":"Feature","geometry":{"type":"Point","coordinates":[3.09654195232021,50.6342199653759]},"properties":{"OBJECTID":91,"NUMERO":91,"STATION":"91 Square des Meres","TPE":"SANS_TPE","NOMBRE_BO":25,"ADRESSE":"95 RUE DE LANNOY","YRGF93":7059698.67,"XRGF93":706841.74,"INSEE":59350}}
,{"type":"Feature","geometry":{"type":"Point","coordinates":[3.09110596600008,50.6366499928495]},"properties":{"OBJECTID":92,"NUMERO":92,"STATION":"92 Rue de la Gaite","TPE":"SANS_TPE","NOMBRE_BO":18,"ADRESSE":"9 RUE MARCEAU","YRGF93":7059968.99,"XRGF93":706456.19,"INSEE":59350}}
,{"type":"Feature","geometry":{"type":"Point","coordinates":[3.08814705837513,50.628917999412]},"properties":{"OBJECTID":93,"NUMERO":93,"STATION":"93 Stade Ballet","TPE":"SANS_TPE","NOMBRE_BO":18,"ADRESSE":"85 RUE DU LONG POT","YRGF93":7059107.18,"XRGF93":706247.47,"INSEE":59350}}
,{"type":"Feature","geometry":{"type":"Point","coordinates":[3.0339770138739,50.6357899605776]},"properties":{"OBJECTID":94,"NUMERO":94,"STATION":"94 Marx Dormoy","TPE":"SANS_TPE","NOMBRE_BO":24,"ADRESSE":"RUE DE BORDEAUX","YRGF93":7059869.95,"XRGF93":702407.81,"INSEE":59350}}
,{"type":"Feature","geometry":{"type":"Point","coordinates":[3.0970369327268,50.6304099920025]},"properties":{"OBJECTID":95,"NUMERO":95,"STATION":"95 Marbrerie (CB)","TPE":"AVEC_TPE","NOMBRE_BO":18,"ADRESSE":"280 BIS RUE PIERRE LEGRAND","YRGF93":7059274.17,"XRGF93":706877.34,"INSEE":59350}}
,{"type":"Feature","geometry":{"type":"Point","coordinates":[3.07511604587263,50.6454299904083]},"properties":{"OBJECTID":96,"NUMERO":96,"STATION":"96 Romarin (CB)","TPE":"AVEC_TPE","NOMBRE_BO":18,"ADRESSE":"ALLEE VICTOR BASCH","YRGF93":7060946.16,"XRGF93":705322.14,"INSEE":59368}}
,{"type":"Feature","geometry":{"type":"Point","coordinates":[3.07405703696406,50.659369977707]},"properties":{"OBJECTID":97,"NUMERO":97,"STATION":"97 La Madeleine Gare","TPE":"SANS_TPE","NOMBRE_BO":17,"ADRESSE":"250 RUE GENERAL DE GAULLE","YRGF93":7062499.46,"XRGF93":705245.65,"INSEE":59368}}
,{"type":"Feature","geometry":{"type":"Point","coordinates":[3.06875603158651,50.6549000440656]},"properties":{"OBJECTID":98,"NUMERO":98,"STATION":"98 Place du Marche (CB)","TPE":"AVEC_TPE","NOMBRE_BO":24,"ADRESSE":"ANGLE DE LA RUE GAMBETTA ET LA PLACE FUSILLES ET DEPORTES","YRGF93":7062001.02,"XRGF93":704870.6,"INSEE":59368}}
,{"type":"Feature","geometry":{"type":"Point","coordinates":[3.0738049408429,50.6546019920736]},"properties":{"OBJECTID":99,"NUMERO":99,"STATION":"99 La Madeleine Mairie (CB)","TPE":"AVEC_TPE","NOMBRE_BO":24,"ADRESSE":"RUE DU GENERAL DE GAULLE","YRGF93":7061968.13,"XRGF93":705228.29,"INSEE":59368}}
,{"type":"Feature","geometry":{"type":"Point","coordinates":[3.08162501814776,50.6516380075318]},"properties":{"OBJECTID":100,"NUMERO":100,"STATION":"100 Saint Maur (CB)","TPE":"AVEC_TPE","NOMBRE_BO":24,"ADRESSE":"260 AVENUE DE LA REPUBLIQUE","YRGF93":7061638.39,"XRGF93":705782.6,"INSEE":59368}}
,{"type":"Feature","geometry":{"type":"Point","coordinates":[3.09929103672692,50.6422999751862]},"properties":{"OBJECTID":101,"NUMERO":101,"STATION":"101 Mons Sarts (CB)","TPE":"AVEC_TPE","NOMBRE_BO":24,"ADRESSE":"AVENUE DES ACACIAS","YRGF93":7060599.27,"XRGF93":707035.43,"INSEE":59410}}
,{"type":"Feature","geometry":{"type":"Point","coordinates":[3.11083503432003,50.6424180002834]},"properties":{"OBJECTID":102,"NUMERO":102,"STATION":"102 Mairie de Mons (CB)","TPE":"AVEC_TPE","NOMBRE_BO":16,"ADRESSE":"AVENUE ROBERT SCHUMAN","YRGF93":7060613.51,"XRGF93":707853.38,"INSEE":59410}}
,{"type":"Feature","geometry":{"type":"Point","coordinates":[3.10667705049902,50.6398280146947]},"properties":{"OBJECTID":103,"NUMERO":103,"STATION":"103 Lacordaire","TPE":"SANS_TPE","NOMBRE_BO":16,"ADRESSE":"44 RUE LACORDAIRE (FACE A LA PISCINE)","YRGF93":7060324.5,"XRGF93":707559.15,"INSEE":59410}}
,{"type":"Feature","geometry":{"type":"Point","coordinates":[3.11274402770599,50.645840005524]},"properties":{"OBJECTID":104,"NUMERO":104,"STATION":"104 Mendes France","TPE":"SANS_TPE","NOMBRE_BO":18,"ADRESSE":"BD NAPOLEON 1ER","YRGF93":7060995.02,"XRGF93":707988.1,"INSEE":59410}}
,{"type":"Feature","geometry":{"type":"Point","coordinates":[3.10231005452297,50.6381259623411]},"properties":{"OBJECTID":105,"NUMERO":105,"STATION":"105 Verdun","TPE":"SANS_TPE","NOMBRE_BO":12,"ADRESSE":"69 AVENUE DE VERDUN","YRGF93":7060134.43,"XRGF93":707249.95,"INSEE":59410}}
,{"type":"Feature","geometry":{"type":"Point","coordinates":[3.11270398107045,50.6381229757604]},"properties":{"OBJECTID":106,"NUMERO":106,"STATION":"106 Concorde (CB)","TPE":"AVEC_TPE","NOMBRE_BO":12,"ADRESSE":"27 BOULEVARD ALPHONSE GAYET","YRGF93":7060135.1,"XRGF93":707986.49,"INSEE":59410}}
,{"type":"Feature","geometry":{"type":"Point","coordinates":[3.10643799901283,50.6361049955367]},"properties":{"OBJECTID":107,"NUMERO":107,"STATION":"107 Lavoisier","TPE":"SANS_TPE","NOMBRE_BO":12,"ADRESSE":"5 RUE LAURENT DE LAVOISIER","YRGF93":7059909.62,"XRGF93":707542.77,"INSEE":59410}}
,{"type":"Feature","geometry":{"type":"Point","coordinates":[3.10051605817517,50.645267007528]},"properties":{"OBJECTID":108,"NUMERO":108,"STATION":"108 General de Gaulle (CB)","TPE":"AVEC_TPE","NOMBRE_BO":20,"ADRESSE":"108 RUE DU GENERAL DE GAULLE","YRGF93":7060930,"XRGF93":707121.81,"INSEE":59410}}
,{"type":"Feature","geometry":{"type":"Point","coordinates":[3.03066705085111,50.623466025855]},"properties":{"OBJECTID":109,"NUMERO":109,"STATION":"109 Square du Portugal","TPE":"SANS_TPE","NOMBRE_BO":16,"ADRESSE":"FACE AU 204 RUE DE LA BASSEE","YRGF93":7058496.61,"XRGF93":702173.78,"INSEE":59350}}
,{"type":"Feature","geometry":{"type":"Point","coordinates":[3.03423401298829,50.6248700349152]},"properties":{"OBJECTID":110,"NUMERO":110,"STATION":"110 Rue Bonte-Pollet (CB)","TPE":"AVEC_TPE","NOMBRE_BO":16,"ADRESSE":"11 RUE BONTE POLLET","YRGF93":7058653.16,"XRGF93":702426.55,"INSEE":59350}}
,{"type":"Feature","geometry":{"type":"Point","coordinates":[3.11667697527581,50.6248600363204]},"properties":{"OBJECTID":111,"NUMERO":111,"STATION":"111 Hellemmes Cimetieres","TPE":"SANS_TPE","NOMBRE_BO":12,"ADRESSE":"318, RUE ROGER SALENGRO","YRGF93":7058657.63,"XRGF93":708270.21,"INSEE":59350}}
,{"type":"Feature","geometry":{"type":"Point","coordinates":[3.11510099425769,50.6268460126375]},"properties":{"OBJECTID":112,"NUMERO":112,"STATION":"112 Square Charles de Gaulle","TPE":"SANS_TPE","NOMBRE_BO":12,"ADRESSE":"4 RUE FERDINAND BUISSON","YRGF93":7058878.76,"XRGF93":708158.18,"INSEE":59350}}
,{"type":"Feature","geometry":{"type":"Point","coordinates":[3.0894500468466,50.6513370137068]},"properties":{"OBJECTID":113,"NUMERO":113,"STATION":"113 Avenue de Mormal","TPE":"SANS_TPE","NOMBRE_BO":18,"ADRESSE":"16 RUE DU BUISSON","YRGF93":7061605.45,"XRGF93":706336.99,"INSEE":59350}}
,{"type":"Feature","geometry":{"type":"Point","coordinates":[3.07921097937706,50.6265100118974]},"properties":{"OBJECTID":114,"NUMERO":114,"STATION":"114 Bois Habite","TPE":"SANS_TPE","NOMBRE_BO":17,"ADRESSE":"BOULEVARD DU PRESIDENT HOOVER","YRGF93":7058838.19,"XRGF93":705614.39,"INSEE":59350}}
,{"type":"Feature","geometry":{"type":"Point","coordinates":[3.07231598040292,50.6514969612626]},"properties":{"OBJECTID":115,"NUMERO":115,"STATION":"115 De Gaulle","TPE":"SANS_TPE","NOMBRE_BO":18,"ADRESSE":"85 RUE DU GENERAL DE GAULLE","YRGF93":7061622.03,"XRGF93":705123.13,"INSEE":59368}}
,{"type":"Feature","geometry":{"type":"Point","coordinates":[3.07833605402089,50.6489100391698]},"properties":{"OBJECTID":116,"NUMERO":116,"STATION":"116 Botanique","TPE":"SANS_TPE","NOMBRE_BO":16,"ADRESSE":"185 AVENUE DE LA REPUBLIQUE","YRGF93":7061334.17,"XRGF93":705549.9,"INSEE":59368}}
,{"type":"Feature","geometry":{"type":"Point","coordinates":[3.03137502699779,50.6416169668743]},"properties":{"OBJECTID":117,"NUMERO":117,"STATION":"117 Hippodrome (CB)","TPE":"AVEC_TPE","NOMBRE_BO":21,"ADRESSE":"9, AVENUE HENRI GRUSON","YRGF93":7060519.18,"XRGF93":702223.16,"INSEE":59328}}
,{"type":"Feature","geometry":{"type":"Point","coordinates":[3.0223639552796,50.6418340273657]},"properties":{"OBJECTID":118,"NUMERO":118,"STATION":"118 College Lavoisier","TPE":"SANS_TPE","NOMBRE_BO":18,"ADRESSE":"56, RUE PAUL VAILLANT","YRGF93":7060543.15,"XRGF93":701584.65,"INSEE":59328}}
,{"type":"Feature","geometry":{"type":"Point","coordinates":[3.01880295035334,50.6409570339017]},"properties":{"OBJECTID":119,"NUMERO":119,"STATION":"119 Lomme-Lambersart","TPE":"SANS_TPE","NOMBRE_BO":18,"ADRESSE":"390, AVENUE DE DUNKERQUE","YRGF93":7060445.36,"XRGF93":701332.35,"INSEE":59328}}
,{"type":"Feature","geometry":{"type":"Point","coordinates":[3.01245201748304,50.6393659926574]},"properties":{"OBJECTID":120,"NUMERO":120,"STATION":"120 Lomme Mairie","TPE":"SANS_TPE","NOMBRE_BO":18,"ADRESSE":"HOTEL DE VILLE","YRGF93":7060267.98,"XRGF93":700882.36,"INSEE":59350}}
,{"type":"Feature","geometry":{"type":"Point","coordinates":[3.01323796029396,50.6448549543455]},"properties":{"OBJECTID":121,"NUMERO":121,"STATION":"121 Pont superieur (CB)","TPE":"AVEC_TPE","NOMBRE_BO":16,"ADRESSE":"ANGLE DE LA RUE AUGUSTE BONTE ET DU 520 DE L AVENUE DE DUNKERQUE","YRGF93":7060879.63,"XRGF93":700937.95,"INSEE":59350}}
,{"type":"Feature","geometry":{"type":"Point","coordinates":[3.08713698021757,50.6656609401335]},"properties":{"OBJECTID":122,"NUMERO":122,"STATION":"122 Piscine de Marcq","TPE":"SANS_TPE","NOMBRE_BO":16,"ADRESSE":"298-300 AVENUE DE LATTRE DE TASSIGNY","YRGF93":7063201.4352,"XRGF93":706171.362,"INSEE":59378}}
,{"type":"Feature","geometry":{"type":"Point","coordinates":[3.07578132430455,50.6653736269001]},"properties":{"OBJECTID":123,"NUMERO":123,"STATION":"123 Rue de l'Eglise","TPE":"AVEC_TPE","NOMBRE_BO":17,"ADRESSE":"71 RUE NATIONALE","YRGF93":7063168.5888,"XRGF93":705367.1436,"INSEE":59378}}
,{"type":"Feature","geometry":{"type":"Point","coordinates":[3.09612891539251,50.6616264607162]},"properties":{"OBJECTID":124,"NUMERO":124,"STATION":"124 Clémenceau Hippodrome","TPE":"SANS_TPE","NOMBRE_BO":18,"ADRESSE":"916-920 AVENUE DE LA RÉPUBLIQUE","YRGF93":7062752.5938,"XRGF93":706808.751,"INSEE":59378}}
,{"type":"Feature","geometry":{"type":"Point","coordinates":[3.11857893537966,50.6438829671097]},"properties":{"OBJECTID":125,"NUMERO":125,"STATION":"125 Fort de Mons","TPE":"SANS_TPE","NOMBRE_BO":20,"ADRESSE":"12 RUE DE NORMANDIE","YRGF93":7060777.55,"XRGF93":708401.84,"INSEE":59410}}
,{"type":"Feature","geometry":{"type":"Point","coordinates":[3.11557107061449,50.6405700284438]},"properties":{"OBJECTID":126,"NUMERO":126,"STATION":"126 Le Polyedre (CB)","TPE":"AVEC_TPE","NOMBRE_BO":16,"ADRESSE":"FACE AU 38  AVENUE RHIN ET DANUBE","YRGF93":7060408.07,"XRGF93":708189.26,"INSEE":59410}}
,{"type":"Feature","geometry":{"type":"Point","coordinates":[3.12796398446184,50.6370800095261]},"properties":{"OBJECTID":127,"NUMERO":127,"STATION":"127 Flers Mairie (CB)","TPE":"AVEC_TPE","NOMBRE_BO":12,"ADRESSE":"16 RUE DU GENERAL LECLERC","YRGF93":7060020.53,"XRGF93":709068.04,"INSEE":59009}}
,{"type":"Feature","geometry":{"type":"Point","coordinates":[3.12733500673376,50.6338420264731]},"properties":{"OBJECTID":128,"NUMERO":128,"STATION":"128 Rue Louise Michel","TPE":"SANS_TPE","NOMBRE_BO":16,"ADRESSE":"93 RUE LOUISE MICHEL","YRGF93":7059659.65,"XRGF93":709024.05,"INSEE":59009}}
,{"type":"Feature","geometry":{"type":"Point","coordinates":[3.13085297625898,50.6360799601966]},"properties":{"OBJECTID":129,"NUMERO":129,"STATION":"129 Flers Chateau (CB)","TPE":"AVEC_TPE","NOMBRE_BO":14,"ADRESSE":"RUE DE LA CHEVALERIE","YRGF93":7059909.43,"XRGF93":709272.95,"INSEE":59009}}
,{"type":"Feature","geometry":{"type":"Point","coordinates":[3.12789402585224,50.6245160359221]},"properties":{"OBJECTID":130,"NUMERO":130,"STATION":"130 Pont de Bois (CB)","TPE":"AVEC_TPE","NOMBRE_BO":30,"ADRESSE":"RUE BAUDOUIN IX METRO PONT DE BOIS","YRGF93":7058620.53,"XRGF93":709065.35,"INSEE":59009}}
,{"type":"Feature","geometry":{"type":"Point","coordinates":[3.13197004273372,50.6196020356753]},"properties":{"OBJECTID":131,"NUMERO":131,"STATION":"131 V,Ascq Hotel de Ville (CB)","TPE":"AVEC_TPE","NOMBRE_BO":37,"ADRESSE":"RUE VERMEER PARKING DE L HOTEL DE VILLE","YRGF93":7058073.45,"XRGF93":709355.18,"INSEE":59009}}
,{"type":"Feature","geometry":{"type":"Point","coordinates":[3.13200601749133,50.6160600352368]},"properties":{"OBJECTID":132,"NUMERO":132,"STATION":"132 Centre Commercial V2 (CB)","TPE":"AVEC_TPE","NOMBRE_BO":19,"ADRESSE":"BOULEVARD VALMY","YRGF93":7057678.78,"XRGF93":709358.39,"INSEE":59009}}
,{"type":"Feature","geometry":{"type":"Point","coordinates":[3.12650102970305,50.6191500322522]},"properties":{"OBJECTID":133,"NUMERO":133,"STATION":"133 Boulevard de Valmy (CB)","TPE":"AVEC_TPE","NOMBRE_BO":28,"ADRESSE":"FACE AU 233 BOULEVARD DE VALMY","YRGF93":7058022.45,"XRGF93":708967.57,"INSEE":59009}}
,{"type":"Feature","geometry":{"type":"Point","coordinates":[3.13170602653429,50.6220999954615]},"properties":{"OBJECTID":134,"NUMERO":134,"STATION":"134 Rue des Victoires","TPE":"SANS_TPE","NOMBRE_BO":16,"ADRESSE":"76 BOULEVARD VAN GOGH","YRGF93":7058351.76,"XRGF93":709336,"INSEE":59009}}
,{"type":"Feature","geometry":{"type":"Point","coordinates":[3.12314495124212,50.6374500439963]},"properties":{"OBJECTID":135,"NUMERO":135,"STATION":"135 Flers Masquelier","TPE":"SANS_TPE","NOMBRE_BO":16,"ADRESSE":"97 RUE JULES GUESDE","YRGF93":7060061.22,"XRGF93":708726.48,"INSEE":59009}}
,{"type":"Feature","geometry":{"type":"Point","coordinates":[3.13387304889546,50.6297199806192]},"properties":{"OBJECTID":136,"NUMERO":136,"STATION":"136 Rue Chambord","TPE":"SANS_TPE","NOMBRE_BO":18,"ADRESSE":"RUE CHAMBORD ANGLE AVENUE DE LA CHATELLENIE","YRGF93":7059201.1,"XRGF93":709488.17,"INSEE":59009}}
,{"type":"Feature","geometry":{"type":"Point","coordinates":[3.12608906362522,50.6158680303801]},"properties":{"OBJECTID":137,"NUMERO":137,"STATION":"137 Heron Parc (CB)","TPE":"AVEC_TPE","NOMBRE_BO":30,"ADRESSE":"40 RUE DE LA VAGUE","YRGF93":7057656.7,"XRGF93":708938.95,"INSEE":59009}}
,{"type":"Feature","geometry":{"type":"Point","coordinates":[3.12691400687926,50.631297975757]},"properties":{"OBJECTID":138,"NUMERO":138,"STATION":"138 Ladriere","TPE":"SANS_TPE","NOMBRE_BO":20,"ADRESSE":"FACE AU 53 RUE DE FIVES","YRGF93":7059376.12,"XRGF93":708994.67,"INSEE":59009}}
,{"type":"Feature","geometry":{"type":"Point","coordinates":[3.14471397790415,50.6257699564802]},"properties":{"OBJECTID":139,"NUMERO":139,"STATION":"139 Rue de Lille","TPE":"SANS_TPE","NOMBRE_BO":16,"ADRESSE":"RUE DE LILLE","YRGF93":7058762.31,"XRGF93":710257.32,"INSEE":59009}}
,{"type":"Feature","geometry":{"type":"Point","coordinates":[3.14481494323584,50.6237950217365]},"properties":{"OBJECTID":140,"NUMERO":140,"STATION":"140 Rue Corneille","TPE":"SANS_TPE","NOMBRE_BO":14,"ADRESSE":"RUE CORNEILLE (DEVANT L ECOLE DE MUSIQUE)","YRGF93":7058542.26,"XRGF93":710264.88,"INSEE":59009}}
,{"type":"Feature","geometry":{"type":"Point","coordinates":[3.14080795591041,50.6168200151277]},"properties":{"OBJECTID":141,"NUMERO":141,"STATION":"141 Metro Triolo (CB)","TPE":"AVEC_TPE","NOMBRE_BO":24,"ADRESSE":"2 RUE TRAVERSIERE ANGLE ALLEE TURGOT","YRGF93":7057764.54,"XRGF93":709982.24,"INSEE":59009}}
,{"type":"Feature","geometry":{"type":"Point","coordinates":[3.13820693669605,50.6206000282698]},"properties":{"OBJECTID":142,"NUMERO":142,"STATION":"142 Tremiere","TPE":"SANS_TPE","NOMBRE_BO":20,"ADRESSE":"RUE TREMIERES ANGLE RUE DES FUSILLES","YRGF93":7058185.41,"XRGF93":709797.11,"INSEE":59009}}
,{"type":"Feature","geometry":{"type":"Point","coordinates":[3.14602604898705,50.6177599874254]},"properties":{"OBJECTID":143,"NUMERO":143,"STATION":"143 Rond Point de Tournai","TPE":"SANS_TPE","NOMBRE_BO":16,"ADRESSE":"55 RUE DES FUSILLES","YRGF93":7057869.95,"XRGF93":710351.97,"INSEE":59009}}
,{"type":"Feature","geometry":{"type":"Point","coordinates":[3.14861997116293,50.6257999826242]},"properties":{"OBJECTID":144,"NUMERO":144,"STATION":"144 Annappes Republique (CB)","TPE":"AVEC_TPE","NOMBRE_BO":24,"ADRESSE":"FACE AU 1 BIS RUE DE LA STATION","YRGF93":7058766.17,"XRGF93":710534.17,"INSEE":59009}}
,{"type":"Feature","geometry":{"type":"Point","coordinates":[3.14528001582838,50.6199200330436]},"properties":{"OBJECTID":145,"NUMERO":145,"STATION":"145 Residence","TPE":"SANS_TPE","NOMBRE_BO":20,"ADRESSE":"PLACE NOTRE DAME DE LA NATIVITE","YRGF93":7058110.54,"XRGF93":710298.64,"INSEE":59009}}
,{"type":"Feature","geometry":{"type":"Point","coordinates":[3.05248296297394,50.6326800375789]},"properties":{"OBJECTID":146,"NUMERO":146,"STATION":"146 Solférino Nationale","TPE":"AVEC_TPE","NOMBRE_BO":18,"ADRESSE":"FACE 171 RUE NATIONALE","YRGF93":7059524.13,"XRGF93":703719.48,"INSEE":59350}}
,{"type":"Feature","geometry":{"type":"Point","coordinates":[3.07548304341077,50.6095920312013]},"properties":{"OBJECTID":147,"NUMERO":149,"STATION":"149 Jean Jaures","TPE":"AVEC_TPE","NOMBRE_BO":17,"ADRESSE":"FACE AU 780 AVENUE JEAN JAURES","YRGF93":7056952.81,"XRGF93":705351.96,"INSEE":59507}}
,{"type":"Feature","geometry":{"type":"Point","coordinates":[3.07762202261066,50.6054799775916]},"properties":{"OBJECTID":148,"NUMERO":150,"STATION":"150 Ronchin Mairie","TPE":"AVEC_TPE","NOMBRE_BO":24,"ADRESSE":"SUR LE PARVIS DE LA MAIRIE","YRGF93":7056494.77,"XRGF93":705504.07,"INSEE":59507}}
,{"type":"Feature","geometry":{"type":"Point","coordinates":[3.06498906349229,50.6554700356728]},"properties":{"OBJECTID":149,"NUMERO":153,"STATION":"153 Pompidou","TPE":"SANS_TPE","NOMBRE_BO":24,"ADRESSE":"FACE AU 102 ALLEE DU RIEZ","YRGF93":7062064.31,"XRGF93":704603.7,"INSEE":59368}}
,{"type":"Feature","geometry":{"type":"Point","coordinates":[3.05120103957342,50.6550979617552]},"properties":{"OBJECTID":150,"NUMERO":155,"STATION":"155 Bailly","TPE":"SANS_TPE","NOMBRE_BO":15,"ADRESSE":"FACE AU 4 RUE GAMBETTA","YRGF93":7062022.13,"XRGF93":703627.01,"INSEE":59527}}
,{"type":"Feature","geometry":{"type":"Point","coordinates":[3.05032202560679,50.6616020063683]},"properties":{"OBJECTID":151,"NUMERO":156,"STATION":"156 St André Mairie","TPE":"AVEC_TPE","NOMBRE_BO":24,"ADRESSE":"FACE AU 92 RUE DU GENERAL LECLERC","YRGF93":7062746.86,"XRGF93":703564.28,"INSEE":59527}}
,{"type":"Feature","geometry":{"type":"Point","coordinates":[3.04204502756314,50.6498900055976]},"properties":{"OBJECTID":152,"NUMERO":157,"STATION":"157 Canon d'Or","TPE":"AVEC_TPE","NOMBRE_BO":16,"ADRESSE":"FACE AU 255 RUE DE LILLE","YRGF93":7061441.41,"XRGF93":702978.72,"INSEE":59328}}
,{"type":"Feature","geometry":{"type":"Point","coordinates":[3.03693199215244,50.644942960645]},"properties":{"OBJECTID":153,"NUMERO":158,"STATION":"158 Delécaux","TPE":"AVEC_TPE","NOMBRE_BO":20,"ADRESSE":"FACE AU 102 AVENUE HENRI DELECAUX","YRGF93":7060889.97,"XRGF93":702616.74,"INSEE":59328}}
,{"type":"Feature","geometry":{"type":"Point","coordinates":[3.15590599342947,50.679123025534]},"properties":{"OBJECTID":154,"NUMERO":200,"STATION":"200 Croix Mairie (CB)","TPE":"AVEC_TPE","NOMBRE_BO":24,"ADRESSE":"FACE AU 232, RUE JEAN JAURES","YRGF93":7064709.09,"XRGF93":711038.87,"INSEE":59163}}
,{"type":"Feature","geometry":{"type":"Point","coordinates":[3.16344301071795,50.6739429549809]},"properties":{"OBJECTID":155,"NUMERO":201,"STATION":"201 Edhec","TPE":"SANS_TPE","NOMBRE_BO":30,"ADRESSE":"272  RUE VERTE","YRGF93":7064132.92,"XRGF93":711573.72,"INSEE":59163}}
,{"type":"Feature","geometry":{"type":"Point","coordinates":[3.16745403556601,50.6807900270297]},"properties":{"OBJECTID":156,"NUMERO":203,"STATION":"203 Victor Provo (CB)","TPE":"AVEC_TPE","NOMBRE_BO":20,"ADRESSE":"BOULEVARD DU GENERAL DE GAULLE","YRGF93":7064896.53,"XRGF93":711856.13,"INSEE":59512}}
,{"type":"Feature","geometry":{"type":"Point","coordinates":[3.17197399215331,50.6847570217347]},"properties":{"OBJECTID":157,"NUMERO":204,"STATION":"204 Jean Moulin","TPE":"SANS_TPE","NOMBRE_BO":15,"ADRESSE":"FACE AU 49 BIS BD DU GENERAL DE GAULLE","YRGF93":7065339.29,"XRGF93":712175.19,"INSEE":59512}}
,{"type":"Feature","geometry":{"type":"Point","coordinates":[3.18853800455657,50.6909400193773]},"properties":{"OBJECTID":158,"NUMERO":205,"STATION":"205 Condition Publique (CB)","TPE":"AVEC_TPE","NOMBRE_BO":18,"ADRESSE":"45, RUE LOUIS DUPIRE","YRGF93":7066030.99,"XRGF93":713346.22,"INSEE":59512}}
,{"type":"Feature","geometry":{"type":"Point","coordinates":[3.17481500198477,50.6880149576428]},"properties":{"OBJECTID":159,"NUMERO":206,"STATION":"206 Alfred Mongy","TPE":"SANS_TPE","NOMBRE_BO":24,"ADRESSE":"15, BOULEVARD DU GENERAL DE GAULLE","YRGF93":7065702.79,"XRGF93":712375.52,"INSEE":59512}}
,{"type":"Feature","geometry":{"type":"Point","coordinates":[3.17965994708154,50.6913800383248]},"properties":{"OBJECTID":160,"NUMERO":207,"STATION":"207 Euroteleport (CB)","TPE":"AVEC_TPE","NOMBRE_BO":30,"ADRESSE":"78-84, BOULEVARD DU GENERAL LECLERC","YRGF93":7066078.56,"XRGF93":712717.65,"INSEE":59512}}
,{"type":"Feature","geometry":{"type":"Point","coordinates":[3.18199802195328,50.6754400089666]},"properties":{"OBJECTID":161,"NUMERO":208,"STATION":"208 De Fourmies","TPE":"SANS_TPE","NOMBRE_BO":12,"ADRESSE":"107, BOULEVARD DE FOURMIES","YRGF93":7064302.62,"XRGF93":712887.25,"INSEE":59512}}
,{"type":"Feature","geometry":{"type":"Point","coordinates":[3.19573705970268,50.6749950284368]},"properties":{"OBJECTID":162,"NUMERO":209,"STATION":"209 Usine (CB)","TPE":"AVEC_TPE","NOMBRE_BO":30,"ADRESSE":"AVENUE ALFRED MOTTE","YRGF93":7064255.36,"XRGF93":713860.23,"INSEE":59512}}
,{"type":"Feature","geometry":{"type":"Point","coordinates":[3.18781703719441,50.6768840174789]},"properties":{"OBJECTID":163,"NUMERO":210,"STATION":"210 Linne","TPE":"SANS_TPE","NOMBRE_BO":12,"ADRESSE":"192, AVENUE DE LINNE","YRGF93":7064464.5,"XRGF93":713298.91,"INSEE":59512}}
,{"type":"Feature","geometry":{"type":"Point","coordinates":[3.1745190446513,50.6741639924404]},"properties":{"OBJECTID":164,"NUMERO":211,"STATION":"211 Gustave Delory (CB)","TPE":"AVEC_TPE","NOMBRE_BO":18,"ADRESSE":"48, AVENUE GUSTAVE DELORY","YRGF93":7064159.23,"XRGF93":712357.98,"INSEE":59512}}
,{"type":"Feature","geometry":{"type":"Point","coordinates":[3.18220506209593,50.6820529578821]},"properties":{"OBJECTID":165,"NUMERO":212,"STATION":"212 Danielle Lesaffre","TPE":"SANS_TPE","NOMBRE_BO":18,"ADRESSE":"42, RUE DUPUY DE LOME","YRGF93":7065039.58,"XRGF93":712900.21,"INSEE":59512}}
,{"type":"Feature","geometry":{"type":"Point","coordinates":[3.1820279348803,50.6885900394593]},"properties":{"OBJECTID":166,"NUMERO":213,"STATION":"213 Lannoy","TPE":"SANS_TPE","NOMBRE_BO":18,"ADRESSE":"93, RUE DE LANNOY","YRGF93":7065768.03,"XRGF93":712885.99,"INSEE":59512}}
,{"type":"Feature","geometry":{"type":"Point","coordinates":[3.17925697280553,50.6795000197847]},"properties":{"OBJECTID":167,"NUMERO":214,"STATION":"214 Saint Jean-Baptiste (CB)","TPE":"AVEC_TPE","NOMBRE_BO":12,"ADRESSE":"1, RUE LESUEUR","YRGF93":7064754.61,"XRGF93":712692.13,"INSEE":59512}}
,{"type":"Feature","geometry":{"type":"Point","coordinates":[3.19412194826955,50.6817970244071]},"properties":{"OBJECTID":168,"NUMERO":216,"STATION":"216 Fraternite (CB)","TPE":"AVEC_TPE","NOMBRE_BO":16,"ADRESSE":"PLACE DE LA FRATERNITE","YRGF93":7065013.07,"XRGF93":713744,"INSEE":59512}}
,{"type":"Feature","geometry":{"type":"Point","coordinates":[3.17255795434894,50.6786900249387]},"properties":{"OBJECTID":169,"NUMERO":217,"STATION":"217 Hopital Victor Provo","TPE":"SANS_TPE","NOMBRE_BO":16,"ADRESSE":"BOULEVARD DE LYON","YRGF93":7064663.29,"XRGF93":712218.01,"INSEE":59512}}
,{"type":"Feature","geometry":{"type":"Point","coordinates":[3.18514000423177,50.6739199708154]},"properties":{"OBJECTID":170,"NUMERO":218,"STATION":"218 Place Spriet","TPE":"AVEC_TPE","NOMBRE_BO":24,"ADRESSE":"PLACE CHARLES SPRIET","YRGF93":7064133.75,"XRGF93":713110.13,"INSEE":59512}}
,{"type":"Feature","geometry":{"type":"Point","coordinates":[3.16422198742828,50.6954769718499]},"properties":{"OBJECTID":171,"NUMERO":219,"STATION":"219 Gare Jean Lebas (CB)","TPE":"AVEC_TPE","NOMBRE_BO":17,"ADRESSE":"PLACE DE LA GARE","YRGF93":7066532.74,"XRGF93":711623.89,"INSEE":59512}}
,{"type":"Feature","geometry":{"type":"Point","coordinates":[3.16766604759475,50.6937680423798]},"properties":{"OBJECTID":172,"NUMERO":220,"STATION":"220 Musee Art et Industrie (CB)","TPE":"AVEC_TPE","NOMBRE_BO":14,"ADRESSE":"105, AVENUE JEAN-BAPTISTE LEBAS","YRGF93":7066342.81,"XRGF93":711868.07,"INSEE":59512}}
,{"type":"Feature","geometry":{"type":"Point","coordinates":[3.1739250550084,50.6918400111287]},"properties":{"OBJECTID":173,"NUMERO":221,"STATION":"221 Roubaix Mairie (CB)","TPE":"AVEC_TPE","NOMBRE_BO":30,"ADRESSE":"FACE AU 1, CONTOUR SAINT MARTIN","YRGF93":7066128.91,"XRGF93":712311.58,"INSEE":59512}}
,{"type":"Feature","geometry":{"type":"Point","coordinates":[3.17216496335968,50.6941000141743]},"properties":{"OBJECTID":174,"NUMERO":222,"STATION":"222 Les Gobelins","TPE":"SANS_TPE","NOMBRE_BO":12,"ADRESSE":"32, RUE DE LA COMMUNAUTE URBAINE","YRGF93":7066380.49,"XRGF93":712186.44,"INSEE":59512}}
,{"type":"Feature","geometry":{"type":"Point","coordinates":[3.16911999243039,50.6903150400895]},"properties":{"OBJECTID":175,"NUMERO":223,"STATION":"223 Place Trichon","TPE":"SANS_TPE","NOMBRE_BO":16,"ADRESSE":"3, PLACE DU TRICHON","YRGF93":7065958.23,"XRGF93":711971.81,"INSEE":59512}}
,{"type":"Feature","geometry":{"type":"Point","coordinates":[3.16270400827581,50.691405990143]},"properties":{"OBJECTID":176,"NUMERO":224,"STATION":"224 Centre Nautique (CB)","TPE":"AVEC_TPE","NOMBRE_BO":14,"ADRESSE":"26, RUE DE L'EPEULE","YRGF93":7066078.85,"XRGF93":711517.38,"INSEE":59512}}
,{"type":"Feature","geometry":{"type":"Point","coordinates":[3.1632699368588,50.6839869791159]},"properties":{"OBJECTID":177,"NUMERO":225,"STATION":"225 Epeule Montesquieu","TPE":"SANS_TPE","NOMBRE_BO":16,"ADRESSE":"RUE INKERMAN","YRGF93":7065252.17,"XRGF93":711559.15,"INSEE":59512}}
,{"type":"Feature","geometry":{"type":"Point","coordinates":[3.17000604674719,50.6864499958894]},"properties":{"OBJECTID":178,"NUMERO":226,"STATION":"226 Charles de Gaulle (CB)","TPE":"AVEC_TPE","NOMBRE_BO":16,"ADRESSE":"72, RUE DE LILLE","YRGF93":7065527.65,"XRGF93":712035.46,"INSEE":59512}}
,{"type":"Feature","geometry":{"type":"Point","coordinates":[3.15965796914066,50.6994359847011]},"properties":{"OBJECTID":179,"NUMERO":227,"STATION":"227 Bvrd Armentieres","TPE":"SANS_TPE","NOMBRE_BO":18,"ADRESSE":"1 BOULEVARD D'ARMENTIERES","YRGF93":7066973.27,"XRGF93":711299.95,"INSEE":59512}}
,{"type":"Feature","geometry":{"type":"Point","coordinates":[3.18077897490169,50.6953499956239]},"properties":{"OBJECTID":180,"NUMERO":228,"STATION":"228 Pellart","TPE":"SANS_TPE","NOMBRE_BO":16,"ADRESSE":"15, RUE PELLART","YRGF93":7066521.15,"XRGF93":712795.85,"INSEE":59512}}
,{"type":"Feature","geometry":{"type":"Point","coordinates":[3.18509197449549,50.692368039574]},"properties":{"OBJECTID":181,"NUMERO":229,"STATION":"229 Nations Unies","TPE":"SANS_TPE","NOMBRE_BO":18,"ADRESSE":"158, BOULEVARD GAMBETTA","YRGF93":7066189.55,"XRGF93":713101.91,"INSEE":59512}}
,{"type":"Feature","geometry":{"type":"Point","coordinates":[3.18407001908628,50.7007600056664]},"properties":{"OBJECTID":182,"NUMERO":230,"STATION":"230 De la Vigne","TPE":"SANS_TPE","NOMBRE_BO":11,"ADRESSE":"181 BOULEVARD DE STRASBOURG","YRGF93":7067124.58,"XRGF93":713027.39,"INSEE":59512}}
,{"type":"Feature","geometry":{"type":"Point","coordinates":[3.17717892593348,50.6897619922328]},"properties":{"OBJECTID":183,"NUMERO":231,"STATION":"231 Motte Bossut (CB)","TPE":"AVEC_TPE","NOMBRE_BO":18,"ADRESSE":"ROND POINT DE L'EUROPE","YRGF93":7065897.85,"XRGF93":712542.43,"INSEE":59512}}
,{"type":"Feature","geometry":{"type":"Point","coordinates":[3.17434706107725,50.6997340025624]},"properties":{"OBJECTID":184,"NUMERO":232,"STATION":"232 Fosse aux Chenes","TPE":"AVEC_TPE","NOMBRE_BO":14,"ADRESSE":"13 PLACE DE LA FOSSE AUX CHENES","YRGF93":7067008.68,"XRGF93":712339.51,"INSEE":59512}}
,{"type":"Feature","geometry":{"type":"Point","coordinates":[3.16137804032561,50.7004000200528]},"properties":{"OBJECTID":185,"NUMERO":234,"STATION":"234 Alsace (CB)","TPE":"AVEC_TPE","NOMBRE_BO":16,"ADRESSE":"89 BOULEVARD D'ARMENTIERES","YRGF93":7067080.95,"XRGF93":711421.47,"INSEE":59512}}
,{"type":"Feature","geometry":{"type":"Point","coordinates":[3.16712995917727,50.6963270108371]},"properties":{"OBJECTID":186,"NUMERO":235,"STATION":"235 Blanchemaille","TPE":"SANS_TPE","NOMBRE_BO":16,"ADRESSE":"AVENUE DES NATIONS UNIES ANGLE RUE BLANCHEMAILLE","YRGF93":7066627.9,"XRGF93":711829.52,"INSEE":59512}}
,{"type":"Feature","geometry":{"type":"Point","coordinates":[3.19264303372274,50.694713994576]},"properties":{"OBJECTID":187,"NUMERO":236,"STATION":"236 Chaptal","TPE":"SANS_TPE","NOMBRE_BO":12,"ADRESSE":"3, RUE D'AVELGHEM","YRGF93":7066452.26,"XRGF93":713635.78,"INSEE":59512}}
,{"type":"Feature","geometry":{"type":"Point","coordinates":[3.15633796672226,50.7198029795584]},"properties":{"OBJECTID":188,"NUMERO":237,"STATION":"237 Rue des Anges","TPE":"SANS_TPE","NOMBRE_BO":12,"ADRESSE":"FACE AU 42 RUE DES ANGES","YRGF93":7069242.54,"XRGF93":711060.48,"INSEE":59599}}
,{"type":"Feature","geometry":{"type":"Point","coordinates":[3.1526590065317,50.7207499967315]},"properties":{"OBJECTID":189,"NUMERO":238,"STATION":"238 Theatre Tourcoing (CB)","TPE":"AVEC_TPE","NOMBRE_BO":17,"ADRESSE":"1, RUE DE L'ALMA","YRGF93":7069347.57,"XRGF93":710800,"INSEE":59599}}
,{"type":"Feature","geometry":{"type":"Point","coordinates":[3.16752098630198,50.7302780251245]},"properties":{"OBJECTID":190,"NUMERO":239,"STATION":"239 Bvrd de l Egalite (CB)","TPE":"AVEC_TPE","NOMBRE_BO":14,"ADRESSE":"SETEUR BVRD EGALITE","YRGF93":7070411.55,"XRGF93":711849.17,"INSEE":59599}}
,{"type":"Feature","geometry":{"type":"Point","coordinates":[3.16339599807316,50.7192199861093]},"properties":{"OBJECTID":191,"NUMERO":240,"STATION":"240 Poste (CB)","TPE":"AVEC_TPE","NOMBRE_BO":12,"ADRESSE":"22, RUE LEON SALEMBIER","YRGF93":7069178.58,"XRGF93":711559.95,"INSEE":59599}}
,{"type":"Feature","geometry":{"type":"Point","coordinates":[3.17084699878748,50.7223430310845]},"properties":{"OBJECTID":192,"NUMERO":241,"STATION":"241 Le Corbusier","TPE":"SANS_TPE","NOMBRE_BO":18,"ADRESSE":"RUE DES PIATS (SOUS ABRI BUS - PARVIS DE L'ATELIER)","YRGF93":7069527.74,"XRGF93":712086.34,"INSEE":59599}}
,{"type":"Feature","geometry":{"type":"Point","coordinates":[3.16783396319984,50.7168430089674]},"properties":{"OBJECTID":193,"NUMERO":242,"STATION":"242 Tourcoing gare","TPE":"AVEC_TPE","NOMBRE_BO":18,"ADRESSE":"PLACE PIERRE SEMARD","YRGF93":7068914.34,"XRGF93":711874.49,"INSEE":59599}}
,{"type":"Feature","geometry":{"type":"Point","coordinates":[3.15749002158931,50.7182040371555]},"properties":{"OBJECTID":194,"NUMERO":243,"STATION":"243 Victoire","TPE":"SANS_TPE","NOMBRE_BO":12,"ADRESSE":"FACE AU 1 PLACE DE LA VICTOIRE","YRGF93":7069064.51,"XRGF93":711142.34,"INSEE":59599}}
,{"type":"Feature","geometry":{"type":"Point","coordinates":[3.16646001662669,50.7274480145725]},"properties":{"OBJECTID":195,"NUMERO":244,"STATION":"244 F Roosevelt","TPE":"SANS_TPE","NOMBRE_BO":12,"ADRESSE":"2-14 BOULEVARD DE L'EGALITE","YRGF93":7070096,"XRGF93":711774.79,"INSEE":59599}}
,{"type":"Feature","geometry":{"type":"Point","coordinates":[3.16570303718278,50.7246859533058]},"properties":{"OBJECTID":196,"NUMERO":245,"STATION":"245 Jardin Botanique","TPE":"SANS_TPE","NOMBRE_BO":18,"ADRESSE":"126, RUE VERTE","YRGF93":7069788.07,"XRGF93":711721.89,"INSEE":59599}}
,{"type":"Feature","geometry":{"type":"Point","coordinates":[3.16379398543029,50.7227100064473]},"properties":{"OBJECTID":197,"NUMERO":246,"STATION":"246 Cavell","TPE":"SANS_TPE","NOMBRE_BO":12,"ADRESSE":"FACE AU 49 RUE DE LA CLOCHE","YRGF93":7069567.58,"XRGF93":711587.3,"INSEE":59599}}
,{"type":"Feature","geometry":{"type":"Point","coordinates":[3.16798705476023,50.7341419648184]},"properties":{"OBJECTID":198,"NUMERO":247,"STATION":"247 Rouget de l Isle (CB)","TPE":"AVEC_TPE","NOMBRE_BO":15,"ADRESSE":"SECTEUR BVRD DE L'EGALITE","YRGF93":7070842.24,"XRGF93":711881.22,"INSEE":59599}}
,{"type":"Feature","geometry":{"type":"Point","coordinates":[3.1588349783608,50.7287980147165]},"properties":{"OBJECTID":199,"NUMERO":248,"STATION":"248 Rue Saint Blaise (CB)","TPE":"AVEC_TPE","NOMBRE_BO":12,"ADRESSE":"85, RUE DE GAND","YRGF93":7070245.34,"XRGF93":711235.12,"INSEE":59599}}
,{"type":"Feature","geometry":{"type":"Point","coordinates":[3.15405102968516,50.7287980185761]},"properties":{"OBJECTID":200,"NUMERO":249,"STATION":"249 Rue de Menin","TPE":"SANS_TPE","NOMBRE_BO":12,"ADRESSE":"FACE AU 40 RUE JOURDAN","YRGF93":7070244.67,"XRGF93":710896.73,"INSEE":59599}}
,{"type":"Feature","geometry":{"type":"Point","coordinates":[3.16034399259738,50.7238899759046]},"properties":{"OBJECTID":201,"NUMERO":250,"STATION":"250 Tourcoing Mairie (CB)","TPE":"AVEC_TPE","NOMBRE_BO":22,"ADRESSE":"6 BIS, RUE NATIONALE","YRGF93":7069698.58,"XRGF93":711342.97,"INSEE":59599}}
,{"type":"Feature","geometry":{"type":"Point","coordinates":[3.15655396126616,50.7255100454513]},"properties":{"OBJECTID":202,"NUMERO":251,"STATION":"251 Colbert","TPE":"SANS_TPE","NOMBRE_BO":18,"ADRESSE":"RUE DE GAND (FACE AU LYCEE)","YRGF93":7069878.59,"XRGF93":711074.5,"INSEE":59599}}
,{"type":"Feature","geometry":{"type":"Point","coordinates":[3.15037702034554,50.722630040261]},"properties":{"OBJECTID":203,"NUMERO":252,"STATION":"252 Rue des Poutrains","TPE":"SANS_TPE","NOMBRE_BO":16,"ADRESSE":"RUE DE LILLE","YRGF93":7069556.78,"XRGF93":710638.16,"INSEE":59599}}
,{"type":"Feature","geometry":{"type":"Point","coordinates":[3.15067705319626,50.7250060176441]},"properties":{"OBJECTID":204,"NUMERO":253,"STATION":"253 Avenue Millet","TPE":"SANS_TPE","NOMBRE_BO":12,"ADRESSE":"SECTEUR RUE CONDORCET","YRGF93":7069821.61,"XRGF93":710658.88,"INSEE":59599}}
,{"type":"Feature","geometry":{"type":"Point","coordinates":[3.16223604429389,50.7173229640711]},"properties":{"OBJECTID":205,"NUMERO":254,"STATION":"254 Sebastopol","TPE":"SANS_TPE","NOMBRE_BO":18,"ADRESSE":"FACE AU 69 RUE CARNOT","YRGF93":7068967,"XRGF93":711478.32,"INSEE":59599}}
,{"type":"Feature","geometry":{"type":"Point","coordinates":[3.16501095066108,50.7134000009459]},"properties":{"OBJECTID":206,"NUMERO":255,"STATION":"255 Rue de Roubaix","TPE":"SANS_TPE","NOMBRE_BO":12,"ADRESSE":"SECTEUR UNION","YRGF93":7068530.22,"XRGF93":711675.56,"INSEE":59599}}
,{"type":"Feature","geometry":{"type":"Point","coordinates":[3.1711690241249,50.7369599718306]},"properties":{"OBJECTID":207,"NUMERO":256,"STATION":"256 Pont de Neuville (CB)","TPE":"AVEC_TPE","NOMBRE_BO":16,"ADRESSE":"301, RUE DU PONT DE NEUVILLE","YRGF93":7071156.78,"XRGF93":712105.59,"INSEE":59599}}
,{"type":"Feature","geometry":{"type":"Point","coordinates":[3.07495198509902,50.6121939947064]},"properties":{"OBJECTID":215,"NUMERO":148,"STATION":"148 P.I. de Douai","TPE":"SANS_TPE","NOMBRE_BO":20,"ADRESSE":"RUE DU FAUBOURG DE DOUAI SOUS LE PONT SNCF","YRGF93":7057242.7,"XRGF93":705314.03,"INSEE":59350}}
,{"type":"Feature","geometry":{"type":"Point","coordinates":[3.07220899801928,50.6064189898923]},"properties":{"OBJECTID":216,"NUMERO":151,"STATION":"151 Ch. des Margueritois","TPE":"SANS_TPE","NOMBRE_BO":13,"ADRESSE":"FACE AU 152 CHEMIN MARGUERITOIS","YRGF93":7056599,"XRGF93":705120.14,"INSEE":59507}}
,{"type":"Feature","geometry":{"type":"Point","coordinates":[3.06061500124128,50.6553209970826]},"properties":{"OBJECTID":217,"NUMERO":154,"STATION":"154 Chaufferie (CB)","TPE":"AVEC_TPE","NOMBRE_BO":16,"ADRESSE":"Face au 125 rue Roger Salengro","YRGF93":7062047.4,"XRGF93":704293.86,"INSEE":59368}}
,{"type":"Feature","geometry":{"type":"Point","coordinates":[3.17265399553039,50.7020249909266]},"properties":{"OBJECTID":218,"NUMERO":233,"STATION":"233 Rue de Tourcoing","TPE":"SANS_TPE","NOMBRE_BO":16,"ADRESSE":"RUE DE TOURCOING (SUR LE PARKING GRDF)","YRGF93":7067263.7,"XRGF93":712219.12,"INSEE":59512}}
,{"type":"Feature","geometry":{"type":"Point","coordinates":[3.20629698957095,50.6978940018161]},"properties":{"OBJECTID":219,"NUMERO":264,"STATION":"264 Republique","TPE":"SANS_TPE","NOMBRE_BO":12,"ADRESSE":"203 Rue Carnot","YRGF93":7066809,"XRGF93":714601.31,"INSEE":59650}}
,{"type":"Feature","geometry":{"type":"Point","coordinates":[3.20067417749106,50.6846330139211]},"properties":{"OBJECTID":220,"NUMERO":215,"STATION":"215 Trois Ponts","TPE":"SANS_TPE","NOMBRE_BO":12,"ADRESSE":"186, AVENUE JULIEN LAGACHE","YRGF93":7065330.26,"XRGF93":714207,"INSEE":59512}}
,{"type":"Feature","geometry":{"type":"Point","coordinates":[3.06505977347211,50.6105813672189]},"properties":{"OBJECTID":221,"NUMERO":152,"STATION":"152 Chemin Rouge","TPE":"SANS_TPE","NOMBRE_BO":16,"ADRESSE":"FACE AU 2 CHEMIN ROUGE","YRGF93":7057062.39,"XRGF93":704612.83,"INSEE":59220}}
,{"type":"Feature","geometry":{"type":"Point","coordinates":[3.16233374749723,50.6779339138379]},"properties":{"OBJECTID":222,"NUMERO":202,"STATION":"202 Parc Barbieux","TPE":"SANS_TPE","NOMBRE_BO":24,"ADRESSE":"AVENUE JEAN JAURES","YRGF93":7064577.5,"XRGF93":711494.26,"INSEE":59512}}
];
